$GPRMC,000452.573,A,4741.8282,N,12220.9637,W,0.88,156.28,080115,,,A*75
$GPRMC,001002.486,A,4741.8239,N,12220.9601,W,0.18,0.00,080115,,,A*7A
$GPRMC,001515.400,A,4741.8211,N,12220.9756,W,1.88,220.08,080115,,,A*7E
$GPRMC,001951.314,A,4741.8256,N,12220.9687,W,0.42,0.00,080115,,,A*71
$GPRMC,002453.228,A,4741.8278,N,12220.9634,W,0.49,139.43,080115,,,A*70
$GPRMC,002953.142,A,4741.8190,N,12220.9598,W,1.04,178.14,080115,,,A*7D
$GPRMC,003452.056,A,4741.8385,N,12220.9624,W,0.59,124.77,080115,,,A*73
$GPRMC,003955.000,A,4741.8364,N,12220.9646,W,0.63,317.30,080115,,,A*79
$GPRMC,004454.000,A,4741.8263,N,12220.9698,W,0.64,220.78,080115,,,A*79
$GPRMC,004952.797,A,4741.8408,N,12220.9644,W,2.15,255.47,080115,,,A*7B
$GPRMC,005506.711,A,4741.8289,N,12220.9596,W,1.24,191.67,080115,,,A*72
$GPRMC,005954.000,A,4741.8343,N,12220.9575,W,1.46,209.45,080115,,,A*72
$GPRMC,010458.538,A,4741.8299,N,12220.9559,W,1.81,203.00,080115,,,A*71
$GPRMC,010957.000,A,4741.8267,N,12220.9532,W,1.64,214.55,080115,,,A*7C
$GPRMC,011521.365,A,4741.8292,N,12220.9605,W,0.09,215.52,080115,,,A*71
$GPRMC,011952.280,A,4741.8227,N,12220.9615,W,0.99,216.71,080115,,,A*77
$GPRMC,012512.000,A,4741.8447,N,12220.9311,W,0.92,224.21,080115,,,A*78
$GPRMC,012953.123,A,4741.8332,N,12220.9501,W,2.37,218.14,080115,,,A*77
$GPRMC,013456.006,A,4741.8361,N,12220.9666,W,2.12,217.42,080115,,,A*77
$GPRMC,013952.919,A,4741.8330,N,12220.9563,W,2.87,229.06,080115,,,A*7A
$GPRMC,014628.000,A,4741.8175,N,12220.9597,W,0.15,0.00,080115,,,A*70
$GPRMC,014959.762,A,4741.8249,N,12220.9538,W,0.41,0.00,080115,,,A*72
$GPRMC,015457.676,A,4741.8201,N,12220.9581,W,0.37,0.00,080115,,,A*7B
$GPRMC,020010.589,A,4741.8185,N,12220.9607,W,0.38,225.94,080115,,,A*7C
$GPRMC,020459.503,A,4741.8221,N,12220.9568,W,0.26,0.00,080115,,,A*77
$GPRMC,020958.417,A,4741.8234,N,12220.9602,W,0.63,45.64,080115,,,A*46
$GPRMC,021458.331,A,4741.8264,N,12220.9580,W,1.06,196.73,080115,,,A*7E
$GPRMC,021740.318,A,4741.8336,N,12220.9582,W,0.77,144.87,080115,,,A*78
$GPRMC,022255.000,A,4741.8322,N,12220.9700,W,0.27,177.64,080115,,,A*75
$GPRMC,022803.145,A,4741.8161,N,12220.9622,W,0.10,227.85,080115,,,A*75
$GPRMC,023243.000,A,4741.8096,N,12220.9592,W,4.32,162.94,080115,,,A*7D
$GPRMC,023829.000,A,4741.8010,N,12220.9516,W,0.17,0.00,080115,,,A*72
$GPRMC,024236.920,A,4741.8230,N,12220.9533,W,2.43,155.27,080115,,,A*7A
$GPRMC,024735.795,A,4741.8242,N,12220.9646,W,0.73,153.15,080115,,,A*7E
$GPRMC,025235.704,A,4741.8281,N,12220.9725,W,0.97,0.23,080115,,,A*71
$GPRMC,025742.000,A,4741.8259,N,12220.9636,W,1.42,3.17,080115,,,A*7C
$GPRMC,030246.542,A,4741.8191,N,12220.9670,W,1.25,157.21,080115,,,A*7B
$GPRMC,030746.456,A,4741.8139,N,12220.9753,W,0.95,245.83,080115,,,A*7A
$GPRMC,031246.370,A,4741.8264,N,12220.9639,W,0.45,225.44,080115,,,A*7B
$GPRMC,031747.284,A,4741.8202,N,12220.9525,W,0.92,156.20,080115,,,A*74
$GPRMC,032259.198,A,4741.8243,N,12220.9619,W,0.29,0.00,080115,,,A*7A
$GPRMC,032809.111,A,4741.8270,N,12220.9569,W,0.05,0.00,080115,,,A*7E
$GPRMC,033302.000,A,4741.8279,N,12220.9714,W,1.13,126.33,080115,,,A*7C
$GPRMC,033803.939,A,4741.8281,N,12220.9625,W,0.17,138.85,080115,,,A*76
$GPRMC,034245.852,A,4741.8272,N,12220.9594,W,0.43,0.00,080115,,,A*76
$GPRMC,034746.766,A,4741.8257,N,12220.9607,W,0.24,0.00,080115,,,A*77
$GPRMC,035245.680,A,4741.8253,N,12220.9560,W,0.78,317.39,080115,,,A*79
$GPRMC,035745.594,A,4741.8230,N,12220.9558,W,0.47,0.00,080115,,,A*77
$GPRMC,040245.508,A,4741.8318,N,12220.9635,W,0.55,0.00,080115,,,A*75
$GPRMC,040746.422,A,4741.8232,N,12220.9573,W,0.44,149.25,080115,,,A*79
$GPRMC,041251.335,A,4741.8204,N,12220.9595,W,0.40,0.00,080115,,,A*78
$GPRMC,041748.249,A,4741.8263,N,12220.9654,W,1.51,209.43,080115,,,A*7D
$GPRMC,042246.163,A,4741.8174,N,12220.9517,W,0.45,0.00,080115,,,A*77
$GPRMC,042747.077,A,4741.8241,N,12220.9377,W,0.89,226.03,080115,,,A*77
$GPRMC,043249.000,A,4741.8352,N,12220.9634,W,0.93,215.78,080115,,,A*7B
$GPRMC,043746.904,A,4741.8292,N,12220.9495,W,0.43,347.39,080115,,,A*76
$GPRMC,044303.818,A,4741.8344,N,12220.9539,W,0.88,200.01,080115,,,A*7B
$GPRMC,044746.732,A,4741.8088,N,12220.9591,W,1.82,6.06,080115,,,A*70
$GPRMC,045246.646,A,4741.8226,N,12220.9650,W,0.51,0.00,080115,,,A*71
$GPRMC,045746.560,A,4741.8143,N,12220.9603,W,0.45,248.26,080115,,,A*7A
$GPRMC,050246.474,A,4741.8262,N,12220.9643,W,2.61,145.96,080115,,,A*7A
$GPRMC,050751.000,A,4741.8721,N,12220.9618,W,0.39,178.07,080115,,,A*7B
$GPRMC,051302.000,A,4741.8194,N,12220.9654,W,1.61,165.14,080115,,,A*7A
$GPRMC,051756.000,A,4741.8142,N,12220.9778,W,0.55,154.15,080115,,,A*7E
$GPRMC,052300.000,A,4741.8330,N,12220.9604,W,0.33,0.00,080115,,,A*73
$GPRMC,052752.042,A,4741.8215,N,12220.9693,W,2.40,150.99,080115,,,A*7C
$GPRMC,053251.956,A,4741.8226,N,12220.9644,W,0.76,11.13,080115,,,A*4C
$GPRMC,053751.870,A,4741.8203,N,12220.9646,W,0.34,19.23,080115,,,A*44
$GPRMC,054247.792,A,4741.8230,N,12220.9579,W,1.18,240.15,080115,,,A*79
$GPRMC,054749.685,A,4741.8146,N,12220.9699,W,1.35,218.70,080115,,,A*7B
$GPRMC,055251.612,A,4741.8196,N,12220.9630,W,0.48,245.45,080115,,,A*73
$GPRMC,055757.526,A,4741.8246,N,12220.9600,W,0.28,0.00,080115,,,A*7D
$GPRMC,060252.439,A,4741.8297,N,12220.9616,W,0.39,0.00,080115,,,A*7F
$GPRMC,060803.353,A,4741.8325,N,12220.9628,W,0.12,221.46,080115,,,A*75
$GPRMC,061257.000,A,4741.8270,N,12220.9677,W,4.55,189.47,080115,,,A*76
$GPRMC,061747.203,A,4741.8431,N,12220.9494,W,0.39,0.00,080115,,,A*72
$GPRMC,062251.106,A,4741.8343,N,12220.9593,W,1.24,124.30,080115,,,A*78
$GPRMC,062747.029,A,4741.8352,N,12220.9564,W,0.48,281.34,080115,,,A*7D
$GPRMC,063251.923,A,4741.8256,N,12220.9686,W,1.41,192.95,080115,,,A*75
$GPRMC,063752.836,A,4741.8361,N,12220.9627,W,0.92,16.04,080115,,,A*42
$GPRMC,064251.750,A,4741.8306,N,12220.9638,W,0.14,0.00,080115,,,A*7E
$GPRMC,064751.664,A,4741.8232,N,12220.9677,W,0.48,0.00,080115,,,A*79
$GPRMC,065308.578,A,4741.8353,N,12220.9654,W,0.30,0.00,080115,,,A*76
$GPRMC,065751.492,A,4741.8282,N,12220.9592,W,1.06,352.33,080115,,,A*7F
$GPRMC,070303.406,A,4741.8356,N,12220.9636,W,0.47,0.00,080115,,,A*70
$GPRMC,070751.319,A,4741.8354,N,12220.9621,W,0.41,0.00,080115,,,A*78
$GPRMC,071301.000,A,4741.8298,N,12220.9590,W,0.35,0.00,080115,,,A*78
$GPRMC,071750.145,A,4741.8259,N,12220.9608,W,2.10,212.23,080115,,,A*72
$GPRMC,072313.000,A,4741.8326,N,12220.9655,W,0.17,137.41,080115,,,A*76
$GPRMC,072754.987,A,4741.8214,N,12220.9615,W,0.52,206.77,080115,,,A*76
$GPRMC,073257.888,A,4741.8268,N,12220.9620,W,0.40,0.00,080115,,,A*75
$GPRMC,073852.000,A,4741.8279,N,12220.9590,W,0.80,353.86,080115,,,A*7D
$GPRMC,074321.716,A,4741.8207,N,12220.9631,W,0.24,0.00,080115,,,A*71
$GPRMC,074759.630,A,4741.8305,N,12220.9635,W,1.07,163.53,080115,,,A*7A
$GPRMC,075257.544,A,4741.8243,N,12220.9609,W,0.11,0.00,080115,,,A*78
$GPRMC,075802.000,A,4741.8192,N,12220.9718,W,3.07,162.02,080115,,,A*7A
$GPRMC,080312.371,A,4741.8257,N,12220.9640,W,0.31,0.00,080115,,,A*78
$GPRMC,080547.361,A,4741.8337,N,12220.9738,W,0.93,330.23,080115,,,A*7F
$GPRMC,081103.274,A,4741.8253,N,12220.9647,W,0.39,0.00,080115,,,A*74
$GPRMC,081547.188,A,4741.8185,N,12220.9651,W,1.91,333.73,080115,,,A*7B
$GPRMC,082049.000,A,4741.8140,N,12220.9605,W,0.09,155.07,080115,,,A*7B
$GPRMC,082611.000,A,4741.8197,N,12220.9587,W,0.43,352.98,080115,,,A*7E
$GPRMC,083042.953,A,4741.8238,N,12220.9605,W,1.99,340.72,080115,,,A*7E
$GPRMC,083545.843,A,4741.8279,N,12220.9652,W,1.24,335.33,080115,,,A*7A
$GPRMC,084047.757,A,4741.8420,N,12220.9748,W,3.14,340.22,080115,,,A*73
$GPRMC,084734.671,A,4741.8304,N,12220.9675,W,0.27,19.86,080115,,,A*49
$GPRMC,085057.584,A,4741.8316,N,12220.9645,W,0.29,241.97,080115,,,A*72
$GPRMC,085546.499,A,4741.8187,N,12220.9696,W,1.03,166.53,080115,,,A*79
$GPRMC,090046.412,A,4741.8256,N,12220.9664,W,0.69,66.02,080115,,,A*41
$GPRMC,090546.326,A,4741.8311,N,12220.9606,W,0.64,166.82,080115,,,A*76
$GPRMC,091047.240,A,4741.8323,N,12220.9601,W,0.65,188.85,080115,,,A*72
$GPRMC,091547.154,A,4741.8261,N,12220.9594,W,1.16,168.77,080115,,,A*7F
$GPRMC,092049.068,A,4741.8217,N,12220.9678,W,0.70,217.42,080115,,,A*75
$GPRMC,092604.982,A,4741.8207,N,12220.9630,W,0.08,0.00,080115,,,A*77
$GPRMC,093107.896,A,4741.8270,N,12220.9662,W,0.89,217.60,080115,,,A*7A
$GPRMC,093554.000,A,4741.8179,N,12220.9597,W,2.14,33.99,080115,,,A*48
$GPRMC,094132.000,A,4741.8287,N,12220.9638,W,0.55,3.96,080115,,,A*74
$GPRMC,094700.000,A,4741.8241,N,12220.9657,W,0.48,31.69,080115,,,A*4D
$GPRMC,095109.000,A,4741.8389,N,12220.9607,W,0.11,15.58,080115,,,A*4B
$GPRMC,095555.000,A,4741.8331,N,12220.9644,W,0.25,357.47,080115,,,A*7E
$GPRMC,100201.000,A,4741.8628,N,12220.9591,W,1.46,158.45,080115,,,A*78
$GPRMC,100625.000,A,4741.8228,N,12220.9697,W,0.70,55.72,080115,,,A*47
$GPRMC,101112.000,A,4741.8295,N,12220.9635,W,0.17,70.21,080115,,,A*4B
$GPRMC,101612.117,A,4741.8330,N,12220.9661,W,0.42,350.71,080115,,,A*70
$GPRMC,102113.000,A,4741.8320,N,12220.9660,W,0.99,186.22,080115,,,A*7B
$GPRMC,102707.000,A,4741.8261,N,12220.9650,W,3.58,187.93,080115,,,A*7A
$GPRMC,103104.858,A,4741.8284,N,12220.9567,W,2.09,171.61,080115,,,A*76
$GPRMC,103636.000,A,4741.8254,N,12220.9569,W,1.00,296.45,080115,,,A*70
$GPRMC,104116.000,A,4741.8361,N,12220.9605,W,0.53,0.00,080115,,,A*77
$GPRMC,104614.599,A,4741.8269,N,12220.9611,W,0.78,238.36,080115,,,A*7E
$GPRMC,105104.513,A,4741.8301,N,12220.9502,W,1.39,129.49,080115,,,A*7A
$GPRMC,105604.427,A,4741.8283,N,12220.9680,W,1.79,148.37,080115,,,A*73
$GPRMC,110206.341,A,4741.8347,N,12220.9706,W,0.67,349.71,080115,,,A*7F
$GPRMC,110618.255,A,4741.8214,N,12220.9676,W,0.13,0.00,080115,,,A*7A
$GPRMC,111105.169,A,4741.8272,N,12220.9728,W,0.79,183.16,080115,,,A*77
$GPRMC,111607.000,A,4741.8291,N,12220.9712,W,1.37,162.01,080115,,,A*7A
$GPRMC,112106.000,A,4741.8220,N,12220.9780,W,1.14,175.11,080115,,,A*78
$GPRMC,112636.000,A,4741.8291,N,12220.9708,W,0.56,120.37,080115,,,A*75
$GPRMC,113103.825,A,4741.8170,N,12220.9499,W,4.58,155.35,080115,,,A*77
$GPRMC,113603.739,A,4741.8073,N,12220.9455,W,3.15,149.48,080115,,,A*79
$GPRMC,114104.653,A,4741.8104,N,12220.9443,W,6.14,142.09,080115,,,A*7F
$GPRMC,114642.000,A,4741.8214,N,12220.9638,W,0.35,122.61,080115,,,A*7B
$GPRMC,115112.000,A,4741.8342,N,12220.9699,W,6.56,336.83,080115,,,A*79
$GPRMC,115604.408,A,4741.8281,N,12220.9654,W,0.38,154.57,080115,,,A*7B
$GPRMC,120112.000,A,4741.8330,N,12220.9684,W,5.28,156.86,080115,,,A*7D
$GPRMC,120615.000,A,4741.8249,N,12220.9649,W,1.35,162.57,080115,,,A*70
$GPRMC,121104.157,A,4741.8223,N,12220.9540,W,0.19,0.00,080115,,,A*7B
$GPRMC,121610.049,A,4741.8241,N,12220.9624,W,0.65,173.57,080115,,,A*7E
$GPRMC,122132.963,A,4741.8106,N,12220.9581,W,2.55,357.00,080115,,,A*70
$GPRMC,122610.876,A,4741.8332,N,12220.9607,W,0.64,163.59,080115,,,A*73
$GPRMC,123110.790,A,4741.8265,N,12220.9641,W,0.68,200.85,080115,,,A*78
$GPRMC,123619.000,A,4741.8876,N,12220.9722,W,1.59,186.26,080115,,,A*73
$GPRMC,124103.615,A,4741.8313,N,12220.9644,W,0.36,211.01,080115,,,A*73
$GPRMC,124609.532,A,4741.8378,N,12220.9615,W,1.77,168.03,080115,,,A*7A
$GPRMC,125111.000,A,4741.8270,N,12220.9568,W,1.24,159.83,080115,,,A*7D
$GPRMC,125609.360,A,4741.8246,N,12220.9617,W,2.00,174.07,080115,,,A*7E
$GPRMC,130111.273,A,4741.8286,N,12220.9652,W,0.85,155.21,080115,,,A*72
$GPRMC,130626.000,A,4741.8362,N,12220.9631,W,1.52,4.27,080115,,,A*71
$GPRMC,131116.101,A,4741.8235,N,12220.9627,W,1.04,162.80,080115,,,A*7F
$GPRMC,131617.000,A,4741.8242,N,12220.9447,W,3.33,153.04,080115,,,A*75
$GPRMC,132113.930,A,4741.8273,N,12220.9598,W,0.35,28.57,080115,,,A*40
$GPRMC,132633.843,A,4741.8244,N,12220.9615,W,0.04,0.00,080115,,,A*78
$GPRMC,133115.756,A,4741.8269,N,12220.9650,W,0.54,0.00,080115,,,A*7A
$GPRMC,133615.671,A,4741.8279,N,12220.9646,W,0.50,0.00,080115,,,A*7B
$GPRMC,134119.000,A,4741.8240,N,12220.9641,W,0.94,175.24,080115,,,A*77
$GPRMC,134616.499,A,4741.8286,N,12220.9631,W,0.58,192.76,080115,,,A*78
$GPRMC,135116.413,A,4741.8381,N,12220.9659,W,1.11,341.75,080115,,,A*77
$GPRMC,135358.400,A,4741.8292,N,12220.9641,W,0.28,0.00,080115,,,A*78
$GPRMC,135858.314,A,4741.8261,N,12220.9627,W,0.54,0.00,080115,,,A*76
$GPRMC,140359.227,A,4741.8293,N,12220.9584,W,0.25,204.99,080115,,,A*78
$GPRMC,140909.142,A,4741.8337,N,12220.9663,W,0.14,241.33,080115,,,A*71
$GPRMC,141401.000,A,4741.8323,N,12220.9655,W,0.94,132.89,080115,,,A*7C
$GPRMC,141902.000,A,4741.8371,N,12220.9578,W,4.26,171.87,080115,,,A*7D
$GPRMC,142356.878,A,4741.8340,N,12220.9612,W,2.41,146.12,080115,,,A*70
$GPRMC,142902.000,A,4741.8163,N,12220.9648,W,1.67,198.84,080115,,,A*7B
$GPRMC,143409.000,A,4741.8457,N,12220.9795,W,1.26,322.21,080115,,,A*76
$GPRMC,143918.000,A,4741.8377,N,12220.9843,W,0.50,161.19,080115,,,A*74
$GPRMC,144443.000,A,4741.8622,N,12221.0345,W,5.94,302.90,080115,,,A*7B
$GPRMC,144910.000,A,4741.8330,N,12220.9830,W,0.25,23.64,080115,,,A*43
$GPRMC,145409.000,A,4741.8444,N,12220.9990,W,16.37,125.65,080115,,,A*4A
$GPRMC,145934.000,A,4741.8623,N,12221.0522,W,0.64,111.62,080115,,,A*76
$GPRMC,150413.000,A,4741.8148,N,12220.9606,W,0.77,125.27,080115,,,A*79
$GPRMC,150911.106,A,4741.8324,N,12220.9482,W,2.65,24.40,080115,,,A*47
$GPRMC,151433.019,A,4741.8267,N,12220.9697,W,1.33,194.10,080115,,,A*7B
$GPRMC,151936.000,A,4741.8225,N,12220.9590,W,1.79,135.82,080115,,,A*77
$GPRMC,152410.847,A,4741.8248,N,12220.9724,W,0.26,0.00,080115,,,A*76
$GPRMC,152919.000,A,4741.8209,N,12220.9728,W,0.84,6.97,080115,,,A*70
$GPRMC,153412.000,A,4741.8425,N,12220.9583,W,2.91,28.41,080115,,,A*4D
$GPRMC,153928.000,A,4741.8252,N,12220.9741,W,0.36,235.20,080115,,,A*75
$GPRMC,154433.503,A,4741.8204,N,12220.9652,W,0.55,0.00,080115,,,A*70
$GPRMC,154916.416,A,4741.8245,N,12220.9633,W,0.52,61.78,080115,,,A*42
$GPRMC,155416.330,A,4741.8212,N,12220.9640,W,0.56,0.00,080115,,,A*77
$GPRMC,155917.244,A,4741.8237,N,12220.9632,W,0.06,0.00,080115,,,A*7E
$GPRMC,160422.000,A,4741.8408,N,12220.9593,W,0.22,211.25,080115,,,A*70
$GPRMC,160917.072,A,4741.8289,N,12220.9646,W,0.16,0.00,080115,,,A*78
$GPRMC,161416.986,A,4741.8164,N,12220.9663,W,0.74,187.57,080115,,,A*78
$GPRMC,161916.900,A,4741.8310,N,12220.9630,W,0.93,21.09,080115,,,A*43
$GPRMC,162416.814,A,4741.8239,N,12220.9677,W,0.41,0.00,080115,,,A*75
$GPRMC,162922.729,A,4741.8233,N,12220.9684,W,0.50,209.78,080115,,,A*7C
$GPRMC,163416.642,A,4741.8294,N,12220.9648,W,1.98,8.68,080115,,,A*71
$GPRMC,163916.555,A,4741.8282,N,12220.9651,W,0.38,0.00,080115,,,A*7B
$GPRMC,164416.470,A,4741.8282,N,12220.9641,W,0.18,0.00,080115,,,A*74
$GPRMC,164916.384,A,4741.8246,N,12220.9715,W,0.63,222.78,080115,,,A*7C
$GPRMC,165433.298,A,4741.8345,N,12220.9599,W,0.08,84.91,080115,,,A*4B
$GPRMC,165929.212,A,4741.8301,N,12220.9836,W,0.33,0.00,080115,,,A*7B
$GPRMC,170417.126,A,4741.8230,N,12220.9607,W,0.15,0.00,080115,,,A*70
$GPRMC,170917.040,A,4741.8290,N,12220.9638,W,0.32,0.00,080115,,,A*7F
$GPRMC,171437.000,A,4741.8087,N,12220.9567,W,1.02,158.15,080115,,,A*72
$GPRMC,171908.886,A,4741.8106,N,12220.9573,W,2.43,163.87,080115,,,A*7D
$GPRMC,172410.764,A,4741.8212,N,12220.9658,W,0.28,61.36,080115,,,A*43
$GPRMC,172913.685,A,4741.8273,N,12220.9673,W,3.38,160.28,080115,,,A*70
$GPRMC,173418.000,A,4741.8149,N,12220.9566,W,0.46,220.33,080115,,,A*76
$GPRMC,173922.523,A,4741.8340,N,12220.9723,W,0.23,124.59,080115,,,A*76
$GPRMC,174433.437,A,4741.8245,N,12220.9645,W,0.55,192.44,080115,,,A*7D
$GPRMC,174918.000,A,4741.8117,N,12220.9630,W,0.31,0.00,080115,,,A*77
$GPRMC,175419.000,A,4741.8142,N,12220.9618,W,1.06,166.66,080115,,,A*74
$GPRMC,175917.179,A,4741.8274,N,12220.9668,W,0.94,354.49,080115,,,A*7D
$GPRMC,180417.093,A,4741.8241,N,12220.9539,W,1.94,170.74,080115,,,A*75
$GPRMC,180924.000,A,4741.8185,N,12220.9714,W,0.39,323.75,080115,,,A*77
$GPRMC,181436.000,A,4741.8173,N,12220.9546,W,0.46,101.69,080115,,,A*73
$GPRMC,181919.000,A,4741.8200,N,12220.9617,W,6.26,170.94,080115,,,A*77
$GPRMC,182424.000,A,4741.8270,N,12220.9642,W,3.22,168.47,080115,,,A*76
$GPRMC,182953.000,A,4741.7948,N,12220.9457,W,0.57,332.81,080115,,,A*74
$GPRMC,183413.603,A,4741.8372,N,12220.9644,W,0.61,307.72,080115,,,A*7A
$GPRMC,183925.471,A,4741.8303,N,12220.9702,W,0.33,236.99,080115,,,A*71
$GPRMC,184420.381,A,4741.8170,N,12220.9615,W,1.05,207.70,080115,,,A*76
$GPRMC,184935.000,A,4741.8274,N,12220.9659,W,0.24,84.72,080115,,,A*43
$GPRMC,185429.230,A,4741.8242,N,12220.9716,W,0.76,350.41,080115,,,A*71
$GPRMC,185929.144,A,4741.8225,N,12220.9675,W,0.29,0.00,080115,,,A*70
$GPRMC,190423.058,A,4741.8275,N,12220.9627,W,1.19,229.10,080115,,,A*77
$GPRMC,190936.000,A,4741.8350,N,12220.9602,W,0.16,0.00,080115,,,A*74
$GPRMC,191452.000,A,4741.8292,N,12220.9629,W,0.27,174.48,080115,,,A*70
$GPRMC,191922.800,A,4741.8303,N,12220.9666,W,3.23,173.33,080115,,,A*7C
$GPRMC,192425.000,A,4741.8456,N,12220.9660,W,1.00,318.25,080115,,,A*77
$GPRMC,193002.000,A,4741.8083,N,12220.9518,W,3.46,164.56,080115,,,A*7A
$GPRMC,193421.544,A,4741.8291,N,12220.9638,W,0.75,242.19,080115,,,A*75
$GPRMC,193930.000,A,4741.8296,N,12220.9659,W,0.42,318.98,080115,,,A*7E
$GPRMC,194212.430,A,4741.8541,N,12220.9762,W,1.06,322.39,080115,,,A*72
$GPRMC,194715.356,A,4741.8275,N,12220.9669,W,1.22,344.94,080115,,,A*7C
$GPRMC,195214.299,A,4741.8067,N,12220.9544,W,1.95,204.70,080115,,,A*75
$GPRMC,195716.183,A,4741.8403,N,12220.9698,W,1.16,320.67,080115,,,A*74
$GPRMC,200210.102,A,4741.8352,N,12220.9659,W,1.10,268.07,080115,,,A*72
$GPRMC,200712.008,A,4741.8326,N,12220.9703,W,1.83,329.59,080115,,,A*76
$GPRMC,201220.000,A,4741.7975,N,12220.9636,W,3.77,181.23,080115,,,A*7B
$GPRMC,201716.840,A,4741.8366,N,12220.9606,W,0.31,0.00,080115,,,A*7B
$GPRMC,202233.754,A,4741.8204,N,12220.9639,W,0.29,0.00,080115,,,A*70
$GPRMC,202716.668,A,4741.8244,N,12220.9634,W,0.30,0.00,080115,,,A*7D
$GPRMC,203215.582,A,4741.8270,N,12220.9617,W,0.91,213.82,080115,,,A*7A
$GPRMC,203716.496,A,4741.8262,N,12220.9596,W,0.30,0.00,080115,,,A*70
$GPRMC,204215.410,A,4741.8268,N,12220.9622,W,1.79,182.00,080115,,,A*7E
$GPRMC,204718.000,A,4741.8189,N,12220.9607,W,1.51,356.88,080115,,,A*79
$GPRMC,205219.000,A,4741.8461,N,12220.9598,W,0.53,6.28,080115,,,A*75
$GPRMC,205717.152,A,4741.8331,N,12220.9668,W,0.48,0.00,080115,,,A*70
$GPRMC,210217.065,A,4741.8320,N,12220.9644,W,1.30,358.08,080115,,,A*72
$GPRMC,210718.000,A,4741.8101,N,12220.9645,W,1.22,181.16,080115,,,A*71
$GPRMC,211220.000,A,4741.8209,N,12220.9650,W,3.22,191.15,080115,,,A*71
$GPRMC,211723.808,A,4741.8286,N,12220.9669,W,0.47,174.96,080115,,,A*7A
$GPRMC,212227.000,A,4741.8072,N,12220.9628,W,0.98,144.78,080115,,,A*75
$GPRMC,212733.000,A,4741.8266,N,12220.9626,W,0.04,323.08,080115,,,A*7D
$GPRMC,213209.542,A,4741.8295,N,12220.9651,W,0.98,353.27,080115,,,A*70
$GPRMC,213716.439,A,4741.8210,N,12220.9766,W,1.96,192.03,080115,,,A*78
$GPRMC,214212.356,A,4741.8298,N,12220.9691,W,3.89,147.64,080115,,,A*7C
$GPRMC,214719.000,A,4741.8325,N,12220.9621,W,1.12,165.63,080115,,,A*79
$GPRMC,215226.000,A,4741.8304,N,12220.9517,W,0.43,0.00,080115,,,A*76
$GPRMC,215725.000,A,4741.8144,N,12220.9546,W,0.25,0.00,080115,,,A*72
$GPRMC,220223.031,A,4741.8104,N,12220.9513,W,0.20,0.00,080115,,,A*74
$GPRMC,220722.945,A,4741.8222,N,12220.9604,W,0.48,264.42,080115,,,A*70
$GPRMC,221222.859,A,4741.8256,N,12220.9623,W,0.73,127.45,080115,,,A*75
$GPRMC,221725.000,A,4741.8234,N,12220.9592,W,0.51,306.53,080115,,,A*78
$GPRMC,222225.000,A,4741.8365,N,12220.9722,W,0.37,297.36,080115,,,A*78
$GPRMC,222720.616,A,4741.8192,N,12220.9586,W,1.93,150.80,080115,,,A*75
$GPRMC,223222.515,A,4741.8238,N,12220.9526,W,1.49,313.67,080115,,,A*71
$GPRMC,223730.000,A,4741.8303,N,12220.9533,W,0.33,34.60,080115,,,A*46
$GPRMC,224225.000,A,4741.8138,N,12220.9462,W,2.41,279.28,080115,,,A*7F
$GPRMC,224727.233,A,4741.8327,N,12220.9603,W,1.16,328.69,080115,,,A*72
$GPRMC,225251.000,A,4741.8187,N,12220.9543,W,0.53,132.72,080115,,,A*79
$GPRMC,225734.000,A,4741.8093,N,12220.9524,W,10.83,152.95,080115,,,A*49
$GPRMC,230226.977,A,4741.8317,N,12220.9585,W,0.60,298.48,080115,,,A*7F
$GPRMC,230726.910,A,4741.8177,N,12220.9578,W,0.81,113.49,080115,,,A*73
$GPRMC,231235.825,A,4741.8333,N,12220.9616,W,0.32,153.76,080115,,,A*7B
$GPRMC,231757.739,A,4741.8275,N,12220.9630,W,0.50,0.00,080115,,,A*7D
$GPRMC,232228.653,A,4741.8362,N,12220.9617,W,1.48,166.03,080115,,,A*76
$GPRMC,232737.000,A,4741.8299,N,12220.9671,W,0.81,161.05,080115,,,A*7D
$GPRMC,233231.000,A,4741.8391,N,12220.9728,W,3.26,355.06,080115,,,A*73
$GPRMC,233728.394,A,4741.8284,N,12220.9640,W,1.29,22.60,080115,,,A*44
$GPRMC,234228.308,A,4741.8214,N,12220.9627,W,0.96,112.56,080115,,,A*79
$GPRMC,234731.000,A,4741.8246,N,12220.9708,W,1.85,49.38,080115,,,A*40
$GPRMC,235235.136,A,4741.8183,N,12220.9639,W,0.74,170.53,080115,,,A*74
$GPRMC,235735.050,A,4741.8280,N,12220.9648,W,0.46,0.00,080115,,,A*77
