$GPRMC,040055.177,A,4741.8277,N,12220.9652,W,0.12,0.00,231115,,,A*78
$GPRMC,040238.982,A,4741.8163,N,12220.9523,W,0.22,0.00,231115,,,A*73
$GPRMC,040436.785,A,4741.8129,N,12220.9666,W,1.20,158.01,231115,,,A*70
$GPRMC,040653.000,A,4741.8231,N,12220.9639,W,0.27,209.14,231115,,,A*7E
$GPRMC,040851.052,A,4741.8222,N,12220.9633,W,0.41,0.00,231115,,,A*73
$GPRMC,041054.000,A,4741.8195,N,12220.9608,W,1.74,183.39,231115,,,A*78
$GPRMC,041246.653,A,4741.8248,N,12220.9405,W,0.27,114.96,231115,,,A*79
$GPRMC,041458.000,A,4741.8292,N,12220.9989,W,0.28,0.00,231115,,,A*7A
$GPRMC,041637.218,A,4741.8253,N,12220.9699,W,0.40,208.76,231115,,,A*7C
$GPRMC,041833.002,A,4741.8283,N,12220.9860,W,0.61,288.07,231115,,,A*77
$GPRMC,042038.000,A,4741.8208,N,12220.9719,W,4.73,332.30,231115,,,A*74
$GPRMC,042232.572,A,4741.8211,N,12220.9732,W,0.97,138.89,231115,,,A*79
$GPRMC,042445.000,A,4741.8093,N,12220.9348,W,0.38,103.85,231115,,,A*7F
$GPRMC,042627.096,A,4741.8242,N,12220.9691,W,0.39,214.66,231115,,,A*70
$GPRMC,042823.879,A,4741.8182,N,12220.9651,W,1.12,290.57,231115,,,A*76
$GPRMC,043043.000,A,4741.8121,N,12220.9232,W,0.51,56.29,231115,,,A*40
$GPRMC,043225.000,A,4741.8146,N,12220.9677,W,3.97,144.11,231115,,,A*76
$GPRMC,043415.203,A,4741.8185,N,12220.9690,W,2.77,178.86,231115,,,A*7A
$GPRMC,043711.000,A,4741.8279,N,12220.9820,W,1.34,126.74,231115,,,A*7B
$GPRMC,043814.769,A,4741.8176,N,12220.9638,W,1.15,252.26,231115,,,A*76
$GPRMC,044007.530,A,4741.8195,N,12220.9620,W,1.07,283.83,231115,,,A*71
$GPRMC,044206.328,A,4741.8225,N,12220.9462,W,0.92,306.08,231115,,,A*73
$GPRMC,044409.068,A,4741.8206,N,12220.9667,W,0.06,181.92,231115,,,A*78
$GPRMC,044604.000,A,4741.8192,N,12220.9753,W,0.77,221.32,231115,,,A*74
$GPRMC,044758.648,A,4741.8234,N,12220.9612,W,1.26,259.63,231115,,,A*73
$GPRMC,044957.390,A,4741.8261,N,12220.9966,W,1.92,261.32,231115,,,A*7E
$GPRMC,045159.000,A,4741.8199,N,12220.9676,W,0.65,277.02,231115,,,A*74
$GPRMC,045358.000,A,4741.8220,N,12220.9571,W,0.57,6.51,231115,,,A*71
$GPRMC,045548.683,A,4741.8230,N,12220.9703,W,0.56,174.74,231115,,,A*7F
$GPRMC,045750.458,A,4741.8124,N,12220.9503,W,0.49,0.00,231115,,,A*7B
$GPRMC,045959.000,A,4741.8140,N,12220.9795,W,2.74,269.38,231115,,,A*70
$GPRMC,050326.000,A,4741.8153,N,12220.9795,W,2.41,278.97,231115,,,A*77
$GPRMC,050346.000,A,4741.7978,N,12221.0230,W,1.87,25.18,231115,,,A*49
$GPRMC,050616.000,A,4741.8325,N,12220.9435,W,0.37,40.76,231115,,,A*4E
$GPRMC,050836.000,A,4741.8262,N,12220.9399,W,1.31,246.69,231115,,,A*7C
$GPRMC,061101.217,A,4741.8028,N,12220.9569,W,0.17,227.54,251115,,,A*78
$GPRMC,061108.000,A,4741.8058,N,12220.9541,W,0.18,0.00,251115,,,A*71
$GPRMC,061314.214,A,4741.8201,N,12220.9552,W,0.46,0.00,251115,,,A*7E
$GPRMC,061608.000,A,4741.8003,N,12220.9529,W,0.14,0.00,251115,,,A*7A
$GPRMC,061736.000,A,4741.8209,N,12221.0020,W,0.75,70.72,251115,,,A*4F
$GPRMC,061911.000,A,4741.8168,N,12220.9543,W,0.24,286.54,251115,,,A*73
$GPRMC,062106.245,A,4741.8237,N,12220.9948,W,0.35,139.49,251115,,,A*78
$GPRMC,062225.000,A,4741.8116,N,12220.9363,W,0.30,108.50,251115,,,A*75
$GPRMC,062809.159,A,4741.8252,N,12220.9770,W,0.36,329.76,251115,,,A*7A
$GPRMC,062848.000,A,4741.8233,N,12220.9786,W,0.17,102.66,251115,,,A*75
$GPRMC,062932.000,A,4741.8204,N,12220.9828,W,0.50,115.55,251115,,,A*73
$GPRMC,062939.875,A,4741.8255,N,12220.9820,W,1.54,144.84,251115,,,A*73
$GPRMC,063141.680,A,4741.8196,N,12220.9754,W,0.60,156.83,251115,,,A*73
$GPRMC,062028.275,A,4803.0644,N,12249.8656,W,0.47,331.99,281115,,,A*76
$GPRMC,062040.933,A,4803.0552,N,12249.8797,W,0.64,10.03,281115,,,A*4B
$GPRMC,062236.652,A,4803.0629,N,12249.8650,W,0.61,163.96,281115,,,A*79
$GPRMC,062442.000,A,4803.0688,N,12249.8715,W,0.74,258.92,281115,,,A*7D
$GPRMC,062633.083,A,4803.0676,N,12249.8614,W,1.07,268.28,281115,,,A*74
$GPRMC,062835.000,A,4803.0650,N,12249.8674,W,0.25,112.45,281115,,,A*71
$GPRMC,063038.000,A,4803.0688,N,12249.8691,W,0.15,197.07,281115,,,A*73
$GPRMC,063244.209,A,4803.0686,N,12249.8601,W,0.23,232.67,281115,,,A*79
$GPRMC,063424.910,A,4803.0671,N,12249.8639,W,0.62,256.74,281115,,,A*7C
$GPRMC,063626.602,A,4803.0603,N,12249.8642,W,0.82,160.96,281115,,,A*7D
$GPRMC,063821.281,A,4803.0832,N,12249.8689,W,0.58,0.00,281115,,,A*7F
$GPRMC,064022.000,A,4803.0487,N,12249.8635,W,0.45,108.78,281115,,,A*77
$GPRMC,064219.642,A,4803.0709,N,12249.8595,W,1.07,164.62,281115,,,A*77
$GPRMC,064435.299,A,4803.0612,N,12249.8615,W,0.41,132.68,281115,,,A*77
$GPRMC,064653.962,A,4803.0684,N,12249.8679,W,2.37,13.16,281115,,,A*47
$GPRMC,064821.645,A,4803.0623,N,12249.8677,W,0.28,143.89,281115,,,A*7B
$GPRMC,065051.325,A,4803.0507,N,12249.8633,W,0.21,117.83,281115,,,A*71
$GPRMC,065209.001,A,4803.0634,N,12249.8637,W,0.29,104.46,281115,,,A*7F
$GPRMC,065400.729,A,4803.0606,N,12249.8209,W,0.56,178.18,281115,,,A*7D
$GPRMC,065602.350,A,4803.0697,N,12249.8740,W,0.38,0.00,281115,,,A*78
$GPRMC,065816.020,A,4803.0706,N,12249.8712,W,0.31,247.50,281115,,,A*74
$GPRMC,070115.000,A,4802.9450,N,12249.8128,W,0.90,202.79,281115,,,D*7B
$GPRMC,070203.000,A,4803.0297,N,12249.8559,W,0.74,204.76,281115,,,A*7E
$GPRMC,070349.039,A,4803.0704,N,12249.8576,W,1.02,282.47,281115,,,A*75
$GPRMC,070555.680,A,4803.0603,N,12249.8549,W,0.18,274.44,281115,,,A*70
$GPRMC,070749.347,A,4803.0630,N,12249.8600,W,0.14,116.86,281115,,,A*7A
$GPRMC,071002.000,A,4803.0378,N,12249.8542,W,0.42,299.62,281115,,,A*72
$GPRMC,071144.679,A,4803.0486,N,12249.8599,W,0.15,0.00,281115,,,A*7D
$GPRMC,071436.342,A,4803.0200,N,12249.8473,W,0.14,0.00,281115,,,A*7C
$GPRMC,071625.018,A,4803.0642,N,12249.8437,W,0.12,0.00,281115,,,A*74
$GPRMC,071820.687,A,4803.0702,N,12249.8667,W,0.16,218.42,281115,,,A*74
$GPRMC,071932.351,A,4803.0619,N,12249.8618,W,0.99,154.69,281115,,,A*7E
$GPRMC,072225.011,A,4803.0557,N,12249.8648,W,0.09,0.00,281115,,,A*7D
$GPRMC,072351.672,A,4803.0470,N,12249.8489,W,1.04,337.12,281115,,,A*7F
$GPRMC,072632.339,A,4803.0635,N,12249.8619,W,0.09,0.00,281115,,,A*75
$GPRMC,072815.994,A,4803.0516,N,12249.8602,W,0.26,0.00,281115,,,A*76
$GPRMC,073022.671,A,4803.0748,N,12249.8695,W,1.15,89.33,281115,,,A*48
$GPRMC,073122.347,A,4803.0646,N,12249.8650,W,1.07,327.14,281115,,,A*7E
$GPRMC,073434.017,A,4803.0478,N,12249.8574,W,0.46,0.00,281115,,,A*77
$GPRMC,073529.831,A,4803.0571,N,12249.8683,W,0.43,0.00,281115,,,A*70
$GPRMC,073727.353,A,4803.0785,N,12249.8772,W,0.54,119.23,281115,,,A*7B
$GPRMC,073914.014,A,4803.0582,N,12249.8588,W,0.56,177.69,281115,,,A*73
$GPRMC,074134.000,A,4803.0706,N,12249.8716,W,2.25,330.47,281115,,,A*7B
$GPRMC,074311.346,A,4803.0650,N,12249.8661,W,0.33,0.00,281115,,,A*7A
$GPRMC,074551.000,A,4803.0565,N,12249.8675,W,2.18,169.35,281115,,,A*7A
$GPRMC,074717.681,A,4803.0743,N,12249.8802,W,0.15,237.25,281115,,,A*7B
$GPRMC,074929.346,A,4803.0772,N,12249.8785,W,0.19,257.84,281115,,,A*75
$GPRMC,075108.002,A,4803.0777,N,12249.8911,W,0.16,0.00,281115,,,A*79
$GPRMC,075318.671,A,4803.0545,N,12249.8675,W,0.44,116.87,281115,,,A*78
$GPRMC,075513.350,A,4803.0706,N,12249.8651,W,0.18,98.25,281115,,,A*46
$GPRMC,075702.026,A,4803.0627,N,12249.8690,W,0.23,106.26,281115,,,A*74
$GPRMC,075853.000,A,4803.0541,N,12249.8845,W,0.66,235.72,281115,,,A*7D
$GPRMC,080051.360,A,4803.0633,N,12249.8733,W,1.04,195.19,281115,,,A*71
$GPRMC,080244.033,A,4803.0529,N,12249.8839,W,0.86,201.85,281115,,,A*7F
$GPRMC,080458.000,A,4803.0757,N,12249.8762,W,0.06,0.00,281115,,,A*78
$GPRMC,080644.331,A,4803.0461,N,12249.8862,W,0.52,0.00,281115,,,A*7E
$GPRMC,080845.992,A,4803.0581,N,12249.8732,W,0.40,0.00,281115,,,A*74
$GPRMC,081038.633,A,4803.0632,N,12249.8712,W,0.36,0.00,281115,,,A*7B
$GPRMC,081235.274,A,4803.0878,N,12249.8441,W,0.32,314.41,281115,,,A*71
$GPRMC,081449.932,A,4803.0632,N,12249.8724,W,0.63,66.34,281115,,,A*45
$GPRMC,081622.573,A,4803.0615,N,12249.8687,W,0.46,203.88,281115,,,A*7F
$GPRMC,081821.230,A,4803.0516,N,12249.8807,W,2.84,182.76,281115,,,A*73
$GPRMC,082024.873,A,4803.0668,N,12249.8696,W,3.65,20.78,281115,,,A*45
$GPRMC,082208.525,A,4803.0773,N,12249.8624,W,4.74,31.52,281115,,,A*4A
$GPRMC,082425.000,A,4803.0643,N,12249.8675,W,0.26,93.89,281115,,,A*4A
$GPRMC,082619.791,A,4803.0455,N,12249.8777,W,0.38,265.21,281115,,,A*78
$GPRMC,082814.431,A,4803.0413,N,12249.8877,W,0.43,2.48,281115,,,A*7F
$GPRMC,083031.066,A,4803.0651,N,12249.8682,W,0.80,307.66,281115,,,A*72
$GPRMC,083217.694,A,4803.0513,N,12249.8821,W,0.16,0.00,281115,,,A*76
$GPRMC,083405.322,A,4803.0587,N,12249.8745,W,1.26,199.46,281115,,,A*7A
$GPRMC,083605.947,A,4803.0709,N,12249.8669,W,0.76,203.78,281115,,,A*73
$GPRMC,083810.563,A,4803.0665,N,12249.8676,W,0.17,290.65,281115,,,A*77
$GPRMC,084003.186,A,4803.0584,N,12249.8691,W,0.35,303.11,281115,,,A*78
$GPRMC,084209.816,A,4803.0732,N,12249.8640,W,0.17,0.00,281115,,,A*73
$GPRMC,084400.000,A,4803.0512,N,12249.8723,W,0.16,0.00,281115,,,A*76
$GPRMC,084541.144,A,4803.1901,N,12249.8210,W,0.77,20.34,281115,,,A*4B
$GPRMC,084739.733,A,4803.1170,N,12249.8567,W,1.09,318.45,281115,,,A*7F
$GPRMC,084946.326,A,4803.0578,N,12249.8735,W,0.77,147.92,281115,,,A*7B
$GPRMC,085147.943,A,4803.0640,N,12249.8754,W,0.86,308.94,281115,,,A*74
$GPRMC,085347.579,A,4803.0573,N,12249.8711,W,0.44,0.00,281115,,,A*79
$GPRMC,085545.213,A,4803.0637,N,12249.8716,W,0.43,354.49,281115,,,A*7A
$GPRMC,085741.839,A,4803.0646,N,12249.8644,W,0.11,225.12,281115,,,A*70
$GPRMC,085941.475,A,4803.0597,N,12249.8691,W,0.57,226.53,281115,,,A*79
$GPRMC,090134.100,A,4803.0628,N,12249.8727,W,1.05,198.35,281115,,,A*7B
$GPRMC,090334.728,A,4803.0710,N,12249.8662,W,0.23,0.00,281115,,,A*7C
$GPRMC,090536.347,A,4803.0585,N,12249.8725,W,0.56,154.97,281115,,,A*75
$GPRMC,090720.971,A,4803.0502,N,12249.8702,W,2.34,358.55,281115,,,A*73
$GPRMC,090920.597,A,4803.0507,N,12249.8336,W,1.14,150.67,281115,,,A*75
$GPRMC,091126.225,A,4803.0569,N,12249.8679,W,0.60,346.36,281115,,,A*71
$GPRMC,091314.858,A,4803.0630,N,12249.8464,W,0.58,0.00,281115,,,A*7C
$GPRMC,091515.477,A,4803.0554,N,12249.8601,W,2.84,138.23,281115,,,A*72
$GPRMC,091709.106,A,4803.0730,N,12249.8578,W,2.15,161.40,281115,,,A*72
$GPRMC,091911.723,A,4803.0602,N,12249.8491,W,0.69,356.28,281115,,,A*73
$GPRMC,092109.347,A,4803.0590,N,12249.8684,W,2.42,149.48,281115,,,A*78
$GPRMC,092312.974,A,4803.0665,N,12249.8612,W,0.21,0.00,281115,,,A*7B
$GPRMC,092502.607,A,4803.0673,N,12249.8719,W,2.34,122.45,281115,,,A*7C
$GPRMC,092714.218,A,4803.0648,N,12249.8655,W,0.80,298.32,281115,,,A*7D
$GPRMC,092856.843,A,4803.0715,N,12249.8713,W,0.65,307.81,281115,,,A*7E
$GPRMC,093101.461,A,4803.0700,N,12249.8737,W,1.03,296.43,281115,,,A*7C
$GPRMC,093359.000,A,4803.0757,N,12249.8880,W,0.24,79.28,281115,,,A*4B
$GPRMC,093521.689,A,4803.0681,N,12249.8750,W,0.06,0.00,281115,,,A*79
$GPRMC,093710.293,A,4803.0593,N,12249.8601,W,0.80,7.81,281115,,,A*73
$GPRMC,093850.900,A,4803.0320,N,12249.8170,W,0.21,0.00,281115,,,A*73
$GPRMC,094044.512,A,4803.0558,N,12249.8432,W,0.16,0.00,281115,,,A*78
$GPRMC,094337.129,A,4803.0674,N,12249.8753,W,0.06,0.00,281115,,,A*7B
$GPRMC,094715.000,A,4803.0693,N,12249.8748,W,0.62,142.46,281115,,,D*74
$GPRMC,094822.000,A,4803.0506,N,12249.8563,W,1.81,144.89,281115,,,A*77
$GPRMC,094923.481,A,4803.0629,N,12249.8596,W,0.03,0.00,281115,,,A*75
$GPRMC,095133.000,A,4803.1807,N,12249.9955,W,1.44,0.87,281115,,,A*7C
$GPRMC,095338.000,A,4803.0933,N,12249.9141,W,0.31,0.00,281115,,,A*73
$GPRMC,095533.000,A,4803.0642,N,12249.8694,W,0.53,0.00,281115,,,A*7D
$GPRMC,095715.987,A,4803.0658,N,12249.8814,W,0.47,0.00,281115,,,A*75
$GPRMC,100000.000,A,4803.0137,N,12249.7987,W,0.36,0.00,281115,,,A*71
$GPRMC,100218.000,A,4803.0348,N,12249.8339,W,0.78,161.93,281115,,,A*76
$GPRMC,100326.897,A,4803.0810,N,12249.8849,W,0.13,0.00,281115,,,A*77
$GPRMC,100515.555,A,4803.1189,N,12249.9012,W,0.30,0.00,281115,,,A*7C
$GPRMC,100717.000,A,4803.0491,N,12249.8469,W,0.37,0.00,281115,,,A*7A
$GPRMC,100908.000,A,4803.0690,N,12249.8514,W,0.47,48.56,281115,,,A*4A
$GPRMC,101128.507,A,4803.0576,N,12249.8489,W,0.24,0.00,281115,,,A*77
$GPRMC,101322.000,A,4803.0554,N,12249.8555,W,0.24,0.00,281115,,,A*7D
$GPRMC,101524.000,A,4803.0649,N,12249.8866,W,0.27,316.02,281115,,,A*7A
$GPRMC,101834.000,A,4803.0709,N,12249.8696,W,0.96,334.88,281115,,,A*7A
$GPRMC,101944.000,A,4803.0607,N,12249.8715,W,0.85,315.12,281115,,,A*7B
$GPRMC,102138.712,A,4803.0509,N,12249.8497,W,1.00,125.59,281115,,,A*79
$GPRMC,102316.000,A,4803.0528,N,12249.8544,W,0.26,0.00,281115,,,A*70
$GPRMC,102458.000,A,4803.0301,N,12249.8235,W,0.04,0.00,281115,,,A*71
$GPRMC,102702.000,A,4803.0282,N,12249.8199,W,2.00,120.13,281115,,,A*75
$GPRMC,102850.000,A,4803.0717,N,12249.8881,W,0.52,44.21,281115,,,A*43
$GPRMC,103041.000,A,4803.0450,N,12249.8480,W,0.76,135.91,281115,,,A*7D
$GPRMC,103254.682,A,4803.0530,N,12249.8503,W,0.57,34.33,281115,,,A*41
$GPRMC,103509.000,A,4803.0492,N,12249.8581,W,0.21,347.95,281115,,,A*7B
$GPRMC,103728.000,A,4803.0537,N,12249.8646,W,1.30,304.40,281115,,,A*72
$GPRMC,104106.000,A,4803.0710,N,12249.8754,W,0.58,330.75,281115,,,D*71
$GPRMC,104121.000,A,4803.0510,N,12249.8498,W,0.14,0.00,281115,,,A*7A
$GPRMC,104620.000,A,4803.0571,N,12249.8575,W,1.65,123.50,281115,,,A*7B
$GPRMC,104632.114,A,4803.0608,N,12249.8692,W,0.36,0.00,281115,,,A*79
$GPRMC,104832.529,A,4803.0589,N,12249.8636,W,0.41,268.72,281115,,,A*70
$GPRMC,105027.193,A,4803.0614,N,12249.8695,W,0.32,30.92,281115,,,A*43
$GPRMC,105227.868,A,4803.0718,N,12249.8643,W,0.41,270.79,281115,,,A*7D
$GPRMC,105431.545,A,4803.0769,N,12249.8550,W,0.24,253.47,281115,,,A*76
$GPRMC,105638.214,A,4803.0577,N,12249.8671,W,0.27,0.00,281115,,,A*77
$GPRMC,105827.890,A,4803.0378,N,12249.8685,W,0.13,114.08,281115,,,A*78
$GPRMC,110036.000,A,4803.0521,N,12249.8621,W,0.23,123.91,281115,,,A*76
$GPRMC,110249.212,A,4803.0818,N,12249.8552,W,0.19,0.00,281115,,,A*7C
$GPRMC,110434.000,A,4803.0782,N,12249.8636,W,0.42,0.00,281115,,,A*72
$GPRMC,110608.527,A,4803.0755,N,12249.8576,W,0.65,114.32,281115,,,A*72
$GPRMC,110809.195,A,4803.0664,N,12249.8677,W,0.34,96.07,281115,,,A*48
$GPRMC,111023.856,A,4803.0606,N,12249.8666,W,0.13,101.70,281115,,,A*71
$GPRMC,111250.518,A,4803.0657,N,12249.8641,W,0.45,164.42,281115,,,A*70
$GPRMC,111419.000,A,4803.0616,N,12249.8698,W,0.16,0.00,281115,,,A*75
$GPRMC,111640.851,A,4803.0835,N,12249.8304,W,0.19,0.00,281115,,,A*77
$GPRMC,112019.000,A,4803.0615,N,12249.8624,W,1.24,175.95,281115,,,A*79
$GPRMC,112124.000,A,4803.0651,N,12249.8625,W,0.48,0.00,281115,,,A*73
$GPRMC,112301.000,A,4803.0709,N,12249.8682,W,1.47,38.96,281115,,,A*4D
$GPRMC,112515.447,A,4803.0791,N,12249.8599,W,0.28,0.00,281115,,,A*7D
$GPRMC,112706.000,A,4803.0627,N,12249.8739,W,0.08,0.00,281115,,,A*7C
$GPRMC,112851.000,A,4803.0651,N,12249.8731,W,0.33,0.00,281115,,,A*70
$GPRMC,113125.488,A,4803.0639,N,12249.8750,W,1.91,212.47,281115,,,A*7D
$GPRMC,113318.170,A,4803.0662,N,12249.8721,W,0.84,258.14,281115,,,A*76
$GPRMC,113425.839,A,4803.0721,N,12249.8620,W,0.79,159.93,281115,,,A*72
$GPRMC,113639.000,A,4803.0551,N,12249.8833,W,1.15,232.31,281115,,,A*7B
$GPRMC,113827.213,A,4803.0693,N,12249.8799,W,3.19,211.88,281115,,,A*75
$GPRMC,114043.895,A,4803.0559,N,12249.8587,W,0.07,0.00,281115,,,A*7A
$GPRMC,114212.561,A,4803.0659,N,12249.8655,W,0.38,33.24,281115,,,A*4F
$GPRMC,114407.244,A,4803.0607,N,12249.8732,W,0.62,22.27,281115,,,A*4A
$GPRMC,114607.931,A,4803.0656,N,12249.8720,W,1.06,326.15,281115,,,A*73
$GPRMC,114809.621,A,4803.0680,N,12249.8649,W,0.51,0.00,281115,,,A*78
$GPRMC,115020.323,A,4803.0641,N,12249.8676,W,0.07,0.00,281115,,,A*7F
$GPRMC,115219.028,A,4803.0638,N,12249.8753,W,0.07,0.00,281115,,,A*77
$GPRMC,115405.721,A,4803.0691,N,12249.8658,W,1.05,56.49,281115,,,A*46
$GPRMC,115608.406,A,4803.0613,N,12249.8596,W,0.23,0.00,281115,,,A*7F
$GPRMC,115819.094,A,4803.0687,N,12249.8590,W,0.14,275.17,281115,,,A*77
$GPRMC,120001.788,A,4803.0566,N,12249.8825,W,0.13,302.44,281115,,,A*75
$GPRMC,120159.499,A,4803.0667,N,12249.8747,W,1.87,219.95,281115,,,A*78
$GPRMC,120338.201,A,4803.0638,N,12249.8758,W,0.57,0.00,281115,,,A*74
$GPRMC,120555.883,A,4803.0563,N,12249.8805,W,0.82,209.07,281115,,,A*77
$GPRMC,120803.580,A,4803.0663,N,12249.8697,W,0.78,255.47,281115,,,A*79
$GPRMC,120931.283,A,4803.0671,N,12249.8715,W,0.28,0.00,281115,,,A*71
$GPRMC,121132.988,A,4803.0652,N,12249.8683,W,0.64,278.05,281115,,,A*74
$GPRMC,121339.689,A,4803.0649,N,12249.8763,W,1.21,44.10,281115,,,A*4F
$GPRMC,121522.395,A,4803.0674,N,12249.8607,W,0.37,0.00,281115,,,A*71
$GPRMC,121812.000,A,4803.0830,N,12249.8484,W,0.47,0.00,281115,,,A*70
$GPRMC,121932.807,A,4803.0670,N,12249.8704,W,0.67,191.69,281115,,,A*79
$GPRMC,122201.498,A,4803.0604,N,12249.8689,W,0.08,0.00,281115,,,A*73
$GPRMC,122332.197,A,4803.0646,N,12249.8630,W,0.49,0.00,281115,,,A*79
$GPRMC,122638.000,A,4803.0297,N,12249.8987,W,0.24,58.57,281115,,,A*46
$GPRMC,122730.736,A,4803.0690,N,12249.8652,W,0.48,0.00,281115,,,A*7C
$GPRMC,122926.286,A,4803.0666,N,12249.8634,W,0.85,96.46,281115,,,A*4E
$GPRMC,123105.985,A,4803.0710,N,12249.8660,W,0.59,322.83,281115,,,A*7B
$GPRMC,123345.668,A,4803.0534,N,12249.8507,W,0.10,0.00,281115,,,A*72
$GPRMC,123602.364,A,4803.0612,N,12249.8764,W,0.58,257.41,281115,,,A*74
$GPRMC,123731.046,A,4803.0787,N,12249.8639,W,0.51,0.00,281115,,,A*7E
$GPRMC,123910.731,A,4803.0597,N,12249.8714,W,0.24,0.00,281115,,,A*7B
$GPRMC,124052.402,A,4803.0651,N,12249.8706,W,0.43,0.00,281115,,,A*7B
$GPRMC,124304.077,A,4803.0658,N,12249.8780,W,0.42,0.00,281115,,,A*7B
$GPRMC,124452.747,A,4803.0668,N,12249.8709,W,1.23,285.10,281115,,,A*71
$GPRMC,124658.417,A,4803.0673,N,12249.8820,W,0.13,0.00,281115,,,A*7D
$GPRMC,124852.093,A,4803.0651,N,12249.8670,W,0.05,0.00,281115,,,A*7D
$GPRMC,125049.781,A,4803.0602,N,12249.8649,W,0.68,116.51,281115,,,A*7F
$GPRMC,125310.470,A,4803.0607,N,12249.8675,W,0.11,0.00,281115,,,A*7B
$GPRMC,125446.141,A,4803.0625,N,12249.8656,W,0.22,0.00,281115,,,A*79
$GPRMC,125649.832,A,4803.0606,N,12249.8738,W,0.21,240.01,281115,,,A*75
$GPRMC,125844.530,A,4803.0628,N,12249.8663,W,0.16,0.00,281115,,,A*79
$GPRMC,130035.230,A,4803.0606,N,12249.8660,W,1.59,58.56,281115,,,A*4F
$GPRMC,130232.932,A,4803.0575,N,12249.8666,W,0.93,229.18,281115,,,A*7B
$GPRMC,130614.634,A,4803.0601,N,12249.8601,W,0.53,304.89,281115,,,A*79
$GPRMC,130638.481,A,4803.0662,N,12249.8687,W,0.14,0.00,281115,,,A*75
$GPRMC,130829.056,A,4803.0726,N,12249.8680,W,0.66,33.05,281115,,,A*43
$GPRMC,131319.757,A,4803.0663,N,12249.8592,W,1.28,33.41,281115,,,A*47
$GPRMC,131348.593,A,4803.0682,N,12249.8648,W,1.91,77.75,281115,,,A*47
$GPRMC,131549.175,A,4803.0642,N,12249.8620,W,0.20,151.59,281115,,,A*7E
$GPRMC,131859.000,A,4803.0532,N,12249.8693,W,0.32,316.47,281115,,,A*70
$GPRMC,131935.760,A,4803.0645,N,12249.8725,W,1.78,301.12,281115,,,A*7C
$GPRMC,132212.365,A,4803.0656,N,12249.8598,W,0.05,0.00,281115,,,A*7C
$GPRMC,132521.082,A,4803.0564,N,12249.8636,W,0.40,303.20,281115,,,A*77
$GPRMC,132533.530,A,4803.0522,N,12249.9031,W,0.51,186.82,281115,,,A*7D
$GPRMC,132748.102,A,4803.0646,N,12249.8544,W,0.96,247.43,281115,,,A*79
$GPRMC,132946.838,A,4803.0659,N,12249.8618,W,0.15,0.00,281115,,,A*70
$GPRMC,133126.576,A,4803.0767,N,12249.8474,W,2.98,357.46,281115,,,A*78
$GPRMC,133332.000,A,4803.0724,N,12249.8412,W,1.27,73.92,281115,,,A*47
$GPRMC,133519.100,A,4803.0433,N,12249.8201,W,0.33,83.33,281115,,,A*48
$GPRMC,133719.753,A,4803.0678,N,12249.8445,W,0.16,82.85,281115,,,A*4A
$GPRMC,133924.455,A,4803.0716,N,12249.8398,W,0.47,60.71,281115,,,A*42
$GPRMC,134119.000,A,4803.0650,N,12249.8619,W,0.47,240.07,281115,,,A*79
$GPRMC,134314.881,A,4803.0673,N,12249.8545,W,0.47,339.22,281115,,,A*74
$GPRMC,134520.000,A,4803.0522,N,12249.8832,W,0.33,320.78,281115,,,A*7A
$GPRMC,134715.287,A,4803.0604,N,12249.8516,W,0.31,0.00,281115,,,A*73
$GPRMC,134920.993,A,4803.0752,N,12249.8479,W,0.08,0.00,281115,,,A*75
$GPRMC,135112.701,A,4803.0634,N,12249.8655,W,0.24,0.00,281115,,,A*7B
$GPRMC,135423.000,A,4803.0408,N,12249.9545,W,0.56,311.07,281115,,,A*75
$GPRMC,135501.261,A,4803.0499,N,12249.8530,W,0.23,0.00,281115,,,A*7C
$GPRMC,135656.869,A,4803.0704,N,12249.8528,W,0.28,0.00,281115,,,A*7A
$GPRMC,135852.576,A,4803.0632,N,12249.8615,W,0.40,122.46,281115,,,A*77
$GPRMC,140051.287,A,4803.0603,N,12249.8623,W,1.31,196.62,281115,,,A*7E
$GPRMC,140257.008,A,4803.0626,N,12249.8602,W,0.10,57.01,281115,,,A*40
$GPRMC,140450.734,A,4803.0675,N,12249.8566,W,0.74,121.37,281115,,,A*79
$GPRMC,140654.458,A,4803.0591,N,12249.8662,W,0.13,0.00,281115,,,A*7F
$GPRMC,140935.167,A,4803.0688,N,12249.8599,W,0.07,4.09,281115,,,A*7A
$GPRMC,141047.902,A,4803.0643,N,12249.8593,W,0.05,355.21,281115,,,A*7E
$GPRMC,141334.643,A,4803.0675,N,12249.8556,W,1.38,106.08,281115,,,A*7F
$GPRMC,141439.380,A,4803.0646,N,12249.8611,W,0.38,0.00,281115,,,A*71
$GPRMC,141639.114,A,4803.0651,N,12249.8611,W,0.40,0.00,281115,,,A*75
$GPRMC,141843.847,A,4803.0683,N,12249.8493,W,0.38,81.19,281115,,,A*40
$GPRMC,142032.583,A,4803.0542,N,12249.8535,W,0.22,0.00,281115,,,A*71
$GPRMC,142233.318,A,4803.0712,N,12249.8547,W,0.36,0.00,281115,,,A*71
$GPRMC,142452.000,A,4803.0688,N,12249.8527,W,0.35,0.00,281115,,,A*7D
$GPRMC,142738.807,A,4803.0652,N,12249.8579,W,0.09,311.62,281115,,,A*79
$GPRMC,142857.564,A,4803.0709,N,12249.8487,W,0.91,350.95,281115,,,A*74
$GPRMC,143418.316,A,4803.0694,N,12249.8671,W,0.17,161.81,281115,,,A*74
$GPRMC,143455.515,A,4803.0695,N,12249.8631,W,0.14,172.90,281115,,,A*7C
$GPRMC,143645.162,A,4803.0651,N,12249.8637,W,0.05,0.00,281115,,,A*78
$GPRMC,143840.926,A,4803.0325,N,12249.8505,W,0.22,0.00,281115,,,A*7A
$GPRMC,144032.689,A,4803.0732,N,12249.8649,W,0.20,0.00,281115,,,A*71
$GPRMC,144232.441,A,4803.0722,N,12249.8693,W,0.35,48.53,281115,,,A*4D
$GPRMC,144427.210,A,4803.0693,N,12249.8627,W,0.33,5.22,281115,,,A*70
$GPRMC,144703.976,A,4803.0662,N,12249.8649,W,0.65,163.44,281115,,,A*7A
$GPRMC,144945.000,A,4803.0657,N,12249.8489,W,0.14,0.00,281115,,,A*74
$GPRMC,145028.663,A,4803.0695,N,12249.8627,W,0.15,0.00,281115,,,A*7D
$GPRMC,145218.315,A,4803.0743,N,12249.8585,W,0.18,137.87,281115,,,A*7E
$GPRMC,145442.089,A,4803.0613,N,12249.8745,W,0.17,149.20,281115,,,A*70
$GPRMC,145621.876,A,4803.0650,N,12249.8751,W,0.12,0.00,281115,,,A*76
$GPRMC,145811.650,A,4803.0669,N,12249.8577,W,2.01,253.77,281115,,,A*79
$GPRMC,150018.423,A,4803.0647,N,12249.8725,W,0.61,152.83,281115,,,A*7E
$GPRMC,150225.192,A,4803.0705,N,12249.8649,W,0.26,115.07,281115,,,A*7D
$GPRMC,150431.957,A,4803.0658,N,12249.8650,W,1.34,39.04,281115,,,A*40
$GPRMC,150642.732,A,4803.0652,N,12249.8660,W,0.59,247.20,281115,,,A*75
$GPRMC,150812.500,A,4803.0742,N,12249.8600,W,0.28,0.00,281115,,,A*7E
$GPRMC,151051.277,A,4803.0616,N,12249.8821,W,0.15,0.00,281115,,,A*74
$GPRMC,151219.052,A,4803.0780,N,12249.8747,W,1.01,122.82,281115,,,A*71
$GPRMC,151441.821,A,4803.0691,N,12249.8694,W,0.27,0.00,281115,,,A*76
$GPRMC,151550.592,A,4803.0763,N,12249.8742,W,0.41,0.00,281115,,,A*74
$GPRMC,151747.365,A,4803.0696,N,12249.8656,W,0.39,0.00,281115,,,A*7E
$GPRMC,152013.108,A,4803.0710,N,12249.8621,W,0.14,113.79,281115,,,A*7F
$GPRMC,152142.873,A,4803.0632,N,12249.8625,W,0.69,270.96,281115,,,A*77
$GPRMC,152403.635,A,4803.0673,N,12249.8647,W,0.36,21.56,281115,,,A*4A
$GPRMC,152604.409,A,4803.0679,N,12249.8748,W,0.85,281.78,281115,,,A*7A
$GPRMC,152836.175,A,4803.0641,N,12249.8531,W,0.87,151.61,281115,,,A*78
$GPRMC,153021.000,A,4803.0646,N,12249.8460,W,0.32,0.00,281115,,,A*7A
$GPRMC,153146.735,A,4803.0653,N,12249.8822,W,0.71,116.79,281115,,,A*7A
$GPRMC,153359.505,A,4803.0735,N,12249.8718,W,0.34,155.50,281115,,,A*7D
$GPRMC,153535.280,A,4803.0658,N,12249.8608,W,0.10,276.23,281115,,,A*71
$GPRMC,153736.000,A,4803.0784,N,12249.8597,W,0.55,106.98,281115,,,A*7A
$GPRMC,153937.801,A,4803.0712,N,12249.8629,W,0.25,0.00,281115,,,A*74
$GPRMC,154133.000,A,4803.0591,N,12249.8639,W,0.72,138.33,281115,,,A*76
$GPRMC,154359.338,A,4803.0820,N,12249.8731,W,0.38,0.00,281115,,,A*7A
$GPRMC,154520.108,A,4803.0685,N,12249.8554,W,2.34,323.82,281115,,,A*75
$GPRMC,154720.896,A,4803.0617,N,12249.8613,W,0.09,131.65,281115,,,A*76
$GPRMC,154942.693,A,4803.0621,N,12249.8572,W,0.92,304.96,281115,,,A*7C
$GPRMC,155126.474,A,4803.0616,N,12249.8536,W,0.21,0.00,281115,,,A*78
$GPRMC,155319.232,A,4803.0867,N,12249.8815,W,1.09,304.65,281115,,,A*79
$GPRMC,155521.999,A,4803.0576,N,12249.8436,W,2.58,318.50,281115,,,A*72
$GPRMC,155708.765,A,4803.0635,N,12249.8684,W,0.57,0.00,281115,,,A*7B
$GPRMC,155900.539,A,4803.0538,N,12249.8462,W,0.02,0.00,281115,,,A*72
$GPRMC,160056.314,A,4803.0600,N,12249.8511,W,1.79,129.53,281115,,,A*7B
$GPRMC,160322.078,A,4803.0657,N,12249.8509,W,1.68,271.23,281115,,,A*70
$GPRMC,160508.856,A,4803.0578,N,12249.8467,W,0.32,0.00,281115,,,A*76
$GPRMC,160647.000,A,4803.0614,N,12249.8535,W,0.53,0.00,281115,,,A*7D
$GPRMC,160856.400,A,4803.0656,N,12249.8627,W,0.26,0.00,281115,,,A*73
$GPRMC,161052.178,A,4803.0708,N,12249.8631,W,0.40,0.00,281115,,,A*79
$GPRMC,161244.957,A,4803.0692,N,12249.8663,W,0.19,0.00,281115,,,A*70
$GPRMC,161509.721,A,4803.0736,N,12249.8705,W,0.14,0.00,281115,,,A*72
$GPRMC,161655.513,A,4803.0655,N,12249.8614,W,0.23,0.00,281115,,,A*7A
$GPRMC,161837.000,A,4803.0764,N,12249.8739,W,1.52,312.72,281115,,,A*78
$GPRMC,162048.049,A,4803.0538,N,12249.8496,W,0.20,126.75,281115,,,A*7D
$GPRMC,162230.000,A,4803.0776,N,12249.8677,W,1.34,113.75,281115,,,A*7A
$GPRMC,162452.000,A,4803.0724,N,12249.8568,W,0.30,116.30,281115,,,A*73
$GPRMC,162704.000,A,4803.0758,N,12249.8987,W,0.24,341.80,281115,,,A*7B
$GPRMC,162845.000,A,4803.0580,N,12249.8980,W,0.06,187.27,281115,,,A*74
$GPRMC,163017.961,A,4803.0532,N,12249.8961,W,0.12,345.26,281115,,,A*7A
$GPRMC,163217.741,A,4803.0792,N,12249.8981,W,0.73,33.98,281115,,,A*42
$GPRMC,163413.515,A,4803.0798,N,12249.8821,W,0.27,0.00,281115,,,A*72
$GPRMC,163611.298,A,4803.0725,N,12249.8641,W,0.29,0.00,281115,,,A*70
$GPRMC,163808.078,A,4803.0699,N,12249.8557,W,0.84,290.63,281115,,,A*71
$GPRMC,164007.864,A,4803.0825,N,12249.8888,W,0.24,0.00,281115,,,A*76
$GPRMC,164224.652,A,4803.0809,N,12249.8975,W,3.92,299.90,281115,,,A*76
$GPRMC,164405.000,A,4803.0587,N,12249.8437,W,0.39,0.00,281115,,,A*7B
$GPRMC,164603.230,A,4803.0627,N,12249.8773,W,0.42,0.00,281115,,,A*78
$GPRMC,164758.022,A,4803.0651,N,12249.8693,W,0.70,172.55,281115,,,A*7D
$GPRMC,165038.000,A,4803.0527,N,12249.8662,W,2.31,119.79,281115,,,A*75
$GPRMC,165158.000,A,4803.0512,N,12249.8529,W,0.38,338.07,281115,,,A*7B
$GPRMC,165433.354,A,4803.0784,N,12249.8755,W,0.68,7.40,281115,,,A*7C
$GPRMC,165545.143,A,4803.0496,N,12249.8768,W,0.35,209.83,281115,,,A*7D
$GPRMC,165806.935,A,4803.0619,N,12249.8941,W,0.42,291.62,281115,,,A*70
$GPRMC,170012.726,A,4803.0741,N,12249.8938,W,0.44,269.64,281115,,,A*70
$GPRMC,170144.526,A,4803.0719,N,12249.8690,W,0.33,233.93,281115,,,A*77
$GPRMC,170406.311,A,4803.0647,N,12249.8671,W,0.15,0.00,281115,,,A*7F
$GPRMC,170555.070,A,4803.0520,N,12249.8601,W,0.27,0.00,281115,,,A*78
$GPRMC,170802.000,A,4803.0707,N,12249.9119,W,10.60,296.86,281115,,,A*49
$GPRMC,170936.577,A,4803.0767,N,12249.8737,W,1.11,324.81,281115,,,A*7E
$GPRMC,171144.000,A,4803.0773,N,12249.8748,W,0.02,0.00,281115,,,A*75
$GPRMC,171339.000,A,4803.0636,N,12249.8699,W,4.37,309.04,281115,,,A*7C
$GPRMC,171532.903,A,4803.0773,N,12249.8536,W,0.77,346.03,281115,,,A*71
$GPRMC,171736.667,A,4803.0714,N,12249.8753,W,0.49,204.12,281115,,,A*70
$GPRMC,171922.447,A,4803.0699,N,12249.8629,W,0.51,191.73,281115,,,A*72
$GPRMC,172118.232,A,4803.0662,N,12249.8714,W,1.64,283.89,281115,,,A*7D
$GPRMC,172324.003,A,4803.0627,N,12249.8790,W,2.85,310.85,281115,,,A*76
$GPRMC,172529.789,A,4803.0641,N,12249.8527,W,0.14,286.35,281115,,,A*79
$GPRMC,172716.579,A,4803.0721,N,12249.8599,W,0.43,287.95,281115,,,A*71
$GPRMC,172924.367,A,4803.0773,N,12249.8645,W,0.39,304.03,281115,,,A*7A
$GPRMC,173112.156,A,4803.0675,N,12249.8646,W,1.00,322.91,281115,,,A*76
$GPRMC,173316.939,A,4803.0566,N,12249.8783,W,1.02,214.85,281115,,,A*7B
$GPRMC,173526.731,A,4803.0732,N,12249.8645,W,0.04,290.05,281115,,,A*73
$GPRMC,173705.519,A,4803.0682,N,12249.8670,W,0.61,166.21,281115,,,A*7B
$GPRMC,173902.304,A,4803.0690,N,12249.8668,W,0.61,322.19,281115,,,A*7B
$GPRMC,174113.085,A,4803.0578,N,12249.8686,W,0.69,173.42,281115,,,A*7B
$GPRMC,174309.848,A,4803.0694,N,12249.8696,W,0.09,184.44,281115,,,A*73
$GPRMC,174457.623,A,4803.0672,N,12249.8709,W,0.35,0.00,281115,,,A*71
$GPRMC,174658.409,A,4803.0436,N,12249.8637,W,1.13,184.96,281115,,,A*7F
$GPRMC,174858.198,A,4803.0558,N,12249.8697,W,0.66,349.45,281115,,,A*71
$GPRMC,175055.991,A,4803.0646,N,12249.8719,W,0.54,251.55,281115,,,A*77
$GPRMC,175344.909,A,4803.0687,N,12249.8678,W,0.65,2.07,281115,,,A*7F
$GPRMC,175412.389,A,4803.0686,N,12249.8672,W,0.46,146.48,281115,,,A*79
$GPRMC,180540.527,A,4803.0626,N,12249.8563,W,0.32,349.57,281115,,,A*7E
$GPRMC,180546.296,A,4803.0717,N,12249.8407,W,0.57,0.00,281115,,,A*7A
$GPRMC,180724.712,A,4803.0786,N,12249.8892,W,1.06,39.07,281115,,,A*45
$GPRMC,180730.338,A,4803.0799,N,12249.8518,W,2.06,11.40,281115,,,A*47
$GPRMC,232135.000,A,4803.0323,N,12249.8848,W,0.31,0.00,281115,,,A*79
$GPRMC,235849.000,A,4803.0293,N,12249.8782,W,0.07,0.00,281115,,,A*7A
$GPRMC,000018.000,A,4803.0349,N,12249.8731,W,0.57,0.00,291115,,,A*78
$GPRMC,000020.069,A,4803.0392,N,12249.8660,W,2.83,20.21,291115,,,A*45
$GPRMC,000127.398,A,4803.0513,N,12249.8449,W,0.49,0.00,291115,,,A*7D
$GPRMC,000131.457,A,4803.0510,N,12249.8465,W,0.35,0.00,291115,,,A*78
$GPRMC,000205.610,A,4803.0429,N,12249.8641,W,0.04,0.00,291115,,,A*70
$GPRMC,000216.616,A,4803.0517,N,12249.8487,W,0.14,93.10,291115,,,A*4A
$GPRMC,000421.000,A,4803.0260,N,12249.8731,W,0.25,11.07,291115,,,A*4E
$GPRMC,000617.000,A,4803.0232,N,12249.8770,W,0.57,307.93,291115,,,A*77
$GPRMC,000817.000,A,4803.0130,N,12249.8744,W,0.67,349.39,291115,,,A*76
$GPRMC,001010.000,A,4803.0126,N,12249.8715,W,0.19,274.85,291115,,,A*7A
$GPRMC,001213.000,A,4803.0397,N,12249.8623,W,0.04,302.62,291115,,,A*72
$GPRMC,001411.000,A,4803.0190,N,12249.8776,W,0.17,270.26,291115,,,A*74
$GPRMC,001605.000,A,4803.0015,N,12249.8630,W,0.22,98.26,291115,,,A*4E
$GPRMC,001805.000,A,4803.0047,N,12249.8587,W,0.31,0.00,291115,,,A*7F
$GPRMC,001959.000,A,4802.9902,N,12249.8493,W,4.00,174.63,291115,,,A*72
$GPRMC,002211.000,A,4803.0090,N,12249.8609,W,0.78,355.98,291115,,,A*73
$GPRMC,002404.000,A,4802.9922,N,12249.8403,W,0.42,69.77,291115,,,A*45
$GPRMC,002601.000,A,4802.9811,N,12249.8416,W,1.10,165.19,291115,,,A*74
$GPRMC,002755.000,A,4802.9862,N,12249.8415,W,0.55,328.18,291115,,,A*79
$GPRMC,002953.000,A,4802.9737,N,12249.8356,W,0.13,0.00,291115,,,A*7C
$GPRMC,003209.000,A,4802.9688,N,12249.8300,W,1.54,183.54,291115,,,A*76
$GPRMC,003354.000,A,4802.9720,N,12249.8215,W,0.26,0.00,291115,,,A*76
$GPRMC,003559.000,A,4802.9991,N,12249.8451,W,19.40,331.41,291115,,,A*43
$GPRMC,003704.000,A,4802.9636,N,12249.8092,W,4.55,160.00,291115,,,A*7B
$GPRMC,003726.000,A,4802.9761,N,12249.8205,W,5.09,340.99,291115,,,A*7C
$GPRMC,003928.000,A,4802.9638,N,12249.8126,W,5.85,329.61,291115,,,A*7F
$GPRMC,004137.000,A,4802.9477,N,12249.7971,W,0.37,28.44,291115,,,A*4B
$GPRMC,004632.000,A,4803.0656,N,12249.8588,W,2.67,151.49,291115,,,A*70
$GPRMC,004634.607,A,4803.0817,N,12249.8674,W,9.87,4.46,291115,,,A*77
$GPRMC,004846.220,A,4803.0693,N,12249.8701,W,1.09,225.48,291115,,,A*7D
$GPRMC,005031.942,A,4803.0770,N,12249.8683,W,0.70,315.29,291115,,,A*76
$GPRMC,005229.727,A,4803.0625,N,12249.8485,W,2.05,72.22,291115,,,A*4C
$GPRMC,005438.441,A,4803.0707,N,12249.8650,W,0.42,308.57,291115,,,A*7F
$GPRMC,005624.186,A,4803.0784,N,12249.8626,W,3.59,286.92,291115,,,A*73
$GPRMC,005832.907,A,4803.0667,N,12249.8589,W,0.76,120.97,291115,,,A*75
$GPRMC,010032.637,A,4803.0705,N,12249.8650,W,0.29,334.95,291115,,,A*78
$GPRMC,010226.370,A,4803.0672,N,12249.8659,W,0.93,301.09,291115,,,A*73
$GPRMC,010426.059,A,4803.0937,N,12249.8702,W,1.80,13.99,291115,,,A*46
$GPRMC,010626.847,A,4803.0735,N,12249.8596,W,0.52,44.50,291115,,,A*49
$GPRMC,010814.595,A,4803.0662,N,12249.8580,W,1.57,142.95,291115,,,A*7A
$GPRMC,011020.306,A,4803.0728,N,12249.8560,W,0.57,91.40,291115,,,A*4F
$GPRMC,011217.000,A,4803.0895,N,12249.8667,W,1.31,321.56,291115,,,A*7F
$GPRMC,011417.000,A,4803.0741,N,12249.8549,W,0.55,348.76,291115,,,A*7E
$GPRMC,011700.000,A,4803.0677,N,12249.8726,W,0.81,139.52,291115,,,A*7F
$GPRMC,011816.000,A,4803.0572,N,12249.8688,W,2.65,75.20,291115,,,A*40
$GPRMC,012004.894,A,4803.0730,N,12249.8664,W,1.32,98.33,291115,,,A*4B
$GPRMC,012205.638,A,4803.0773,N,12249.8709,W,0.65,341.61,291115,,,A*7E
$GPRMC,012422.000,A,4803.0968,N,12249.8512,W,0.45,164.41,291115,,,A*79
$GPRMC,012621.000,A,4803.0637,N,12249.8740,W,1.65,137.91,291115,,,A*70
$GPRMC,012758.000,A,4803.0665,N,12249.8826,W,1.24,89.64,291115,,,A*4C
$GPRMC,013016.000,A,4803.0634,N,12249.8717,W,0.19,204.70,291115,,,A*74
$GPRMC,013159.000,A,4803.0861,N,12249.8587,W,0.36,204.91,291115,,,A*79
$GPRMC,013351.856,A,4803.0884,N,12249.9021,W,3.10,93.99,291115,,,A*48
$GPRMC,013553.000,A,4803.0728,N,12249.8517,W,0.29,0.00,291115,,,A*7C
$GPRMC,013747.000,A,4803.0620,N,12249.8711,W,0.38,117.73,291115,,,A*75
$GPRMC,013944.981,A,4803.0677,N,12249.8623,W,0.35,72.62,291115,,,A*45
$GPRMC,014139.645,A,4803.0848,N,12249.8583,W,0.61,153.25,291115,,,A*7C
$GPRMC,014341.000,A,4803.0654,N,12249.8617,W,1.02,26.91,291115,,,A*43
$GPRMC,014556.000,A,4803.0610,N,12249.8580,W,0.55,358.74,291115,,,A*7C
$GPRMC,014732.748,A,4803.0620,N,12249.8631,W,0.69,4.80,291115,,,A*73
$GPRMC,014934.000,A,4803.0597,N,12249.8473,W,3.68,44.59,291115,,,A*49
$GPRMC,015204.000,A,4803.0802,N,12249.8789,W,1.62,44.66,291115,,,A*43
$GPRMC,015326.836,A,4803.0789,N,12249.8810,W,3.78,78.12,291115,,,A*49
$GPRMC,015534.000,A,4803.0663,N,12249.8599,W,0.07,0.00,291115,,,A*7F
$GPRMC,015731.000,A,4803.0713,N,12249.8676,W,0.20,306.73,291115,,,A*78
$GPRMC,015927.000,A,4803.0973,N,12249.8309,W,1.89,242.88,291115,,,A*73
$GPRMC,020120.571,A,4803.0708,N,12249.8698,W,0.48,136.62,291115,,,A*7E
$GPRMC,020318.000,A,4803.0779,N,12249.8647,W,0.43,194.19,291115,,,A*7F
$GPRMC,020514.929,A,4803.0708,N,12249.8620,W,0.14,11.67,291115,,,A*47
$GPRMC,020717.000,A,4803.0942,N,12249.8326,W,0.43,330.37,291115,,,A*70
$GPRMC,020921.296,A,4803.0833,N,12249.8531,W,0.15,28.24,291115,,,A*4A
$GPRMC,021115.979,A,4803.0661,N,12249.8809,W,0.47,57.77,291115,,,A*48
$GPRMC,021306.000,A,4803.0869,N,12249.8449,W,3.69,63.97,291115,,,A*47
$GPRMC,021505.000,A,4803.0768,N,12249.8578,W,1.13,62.39,291115,,,A*45
$GPRMC,021701.079,A,4803.0715,N,12249.8683,W,0.82,41.20,291115,,,A*40
$GPRMC,021857.773,A,4803.0698,N,12249.8631,W,0.99,52.65,291115,,,A*45
$GPRMC,022056.458,A,4803.0730,N,12249.8674,W,0.33,118.62,291115,,,A*7F
$GPRMC,022251.147,A,4803.0694,N,12249.8742,W,0.38,158.68,291115,,,A*7F
$GPRMC,022453.000,A,4803.0662,N,12249.8641,W,0.61,111.26,291115,,,A*79
$GPRMC,022650.541,A,4803.0626,N,12249.8810,W,0.61,102.47,291115,,,A*77
$GPRMC,022853.000,A,4803.0576,N,12249.8823,W,3.58,222.39,291115,,,A*7D
$GPRMC,023054.000,A,4803.0598,N,12249.8924,W,0.37,120.34,291115,,,A*73
$GPRMC,023238.609,A,4803.0625,N,12249.8814,W,3.44,172.69,291115,,,A*7B
$GPRMC,023438.307,A,4803.0613,N,12249.8941,W,3.45,84.33,291115,,,A*44
$GPRMC,042929.000,A,4802.9940,N,12249.8911,W,0.92,156.10,301115,,,A*70
$GPRMC,043301.000,A,4802.9906,N,12249.8940,W,0.54,0.00,301115,,,A*7E
$GPRMC,051228.000,A,4803.0767,N,12249.8655,W,1.05,203.99,301115,,,A*79
$GPRMC,051603.000,A,4803.0071,N,12249.9325,W,0.49,0.00,301115,,,A*7F
$GPRMC,052226.000,A,4803.0212,N,12249.9180,W,0.14,0.00,301115,,,A*7D
$GPRMC,052359.000,A,4803.0040,N,12249.8867,W,0.28,0.00,301115,,,A*7F
$GPRMC,052723.000,A,4803.0061,N,12249.9235,W,0.31,0.00,301115,,,A*71
$GPRMC,052952.000,A,4803.0151,N,12249.9263,W,0.13,0.00,301115,,,A*78
$GPRMC,053218.000,A,4803.0231,N,12249.9211,W,0.26,0.00,301115,,,A*7A
$GPRMC,053327.000,A,4803.0031,N,12249.9303,W,0.45,37.02,301115,,,A*44
$GPRMC,053836.000,A,4803.0252,N,12249.9574,W,0.50,0.00,301115,,,A*7C
$GPRMC,054152.000,A,4803.0237,N,12249.9140,W,0.20,0.00,301115,,,A*77
$GPRMC,054309.000,A,4803.0219,N,12249.9017,W,0.37,0.00,301115,,,A*72
$GPRMC,054431.000,A,4803.0409,N,12249.8971,W,0.42,0.00,301115,,,A*73
$GPRMC,054606.000,A,4803.0356,N,12249.9033,W,0.46,0.00,301115,,,A*72
$GPRMC,055036.000,A,4803.0187,N,12249.9205,W,0.38,0.00,301115,,,A*76
$GPRMC,055129.000,A,4803.0266,N,12249.8918,W,0.04,0.00,301115,,,A*7C
$GPRMC,055255.000,A,4803.0450,N,12249.8844,W,0.43,0.00,301115,,,A*7C
$GPRMC,055449.000,A,4803.0444,N,12249.8899,W,0.32,0.00,301115,,,A*74
$GPRMC,055706.000,A,4803.0322,N,12249.8917,W,0.37,0.00,301115,,,A*79
$GPRMC,055907.000,A,4803.0449,N,12249.8912,W,0.22,0.00,301115,,,A*7D
$GPRMC,060043.000,A,4803.0453,N,12249.8844,W,0.51,0.00,301115,,,A*7F
$GPRMC,060248.000,A,4803.0346,N,12249.8969,W,0.52,0.00,301115,,,A*78
$GPRMC,060518.000,A,4803.0354,N,12249.8919,W,0.23,0.00,301115,,,A*78
$GPRMC,060713.000,A,4803.0326,N,12249.8795,W,0.22,0.00,301115,,,A*7F
$GPRMC,060908.000,A,4803.0379,N,12249.8831,W,0.49,0.00,301115,,,A*7D
$GPRMC,061042.000,A,4803.0328,N,12249.8804,W,0.10,0.00,301115,,,A*75
$GPRMC,061253.000,A,4803.0361,N,12249.8796,W,0.19,0.00,301115,,,A*77
$GPRMC,061414.774,A,4803.0369,N,12249.8774,W,0.83,50.23,301115,,,A*45
$GPRMC,061617.453,A,4803.0348,N,12249.8704,W,0.51,266.56,301115,,,A*7C
$GPRMC,062025.000,A,4803.0550,N,12249.8660,W,0.27,308.17,301115,,,A*7B
$GPRMC,062152.000,A,4803.0544,N,12249.8689,W,0.32,106.72,301115,,,A*73
$GPRMC,062247.823,A,4803.0540,N,12249.8620,W,1.27,23.10,301115,,,A*4D
$GPRMC,062450.000,A,4803.0654,N,12249.8627,W,0.78,158.13,301115,,,A*70
$GPRMC,062905.000,A,4802.9485,N,12249.8882,W,0.21,243.08,301115,,,A*75
$GPRMC,063002.000,A,4803.0445,N,12249.8651,W,0.21,19.98,301115,,,A*4A
$GPRMC,063117.000,A,4803.0524,N,12249.8582,W,0.63,144.75,301115,,,A*78
$GPRMC,063311.867,A,4803.0423,N,12249.8710,W,2.43,326.04,301115,,,A*7A
$GPRMC,063510.566,A,4803.0360,N,12249.8522,W,2.92,347.24,301115,,,A*7B
$GPRMC,063710.207,A,4803.0574,N,12249.8657,W,0.81,251.79,301115,,,A*75
$GPRMC,063907.894,A,4803.0563,N,12249.8569,W,0.54,256.15,301115,,,A*70
$GPRMC,064113.000,A,4803.0410,N,12249.8688,W,0.26,226.84,301115,,,A*7C
$GPRMC,064305.000,A,4803.0581,N,12249.8675,W,0.31,0.00,301115,,,A*7E
$GPRMC,064459.848,A,4803.0604,N,12249.8603,W,1.52,325.81,301115,,,A*72
$GPRMC,064655.481,A,4803.0645,N,12249.8693,W,2.02,326.53,301115,,,A*73
$GPRMC,064900.000,A,4803.0480,N,12249.8477,W,0.48,141.45,301115,,,A*7A
$GPRMC,065111.000,A,4802.9609,N,12249.8423,W,0.66,141.40,301115,,,A*70
$GPRMC,065246.430,A,4803.0494,N,12249.8585,W,2.98,326.61,301115,,,A*76
$GPRMC,065516.000,A,4803.0173,N,12249.8516,W,0.21,359.71,301115,,,A*7C
$GPRMC,065651.000,A,4803.0195,N,12249.8503,W,0.28,291.91,301115,,,A*72
$GPRMC,065908.000,A,4803.0246,N,12249.8390,W,0.49,143.55,301115,,,A*73
$GPRMC,070051.000,A,4803.0375,N,12249.8522,W,0.83,2.14,301115,,,A*7B
$GPRMC,070237.545,A,4803.0638,N,12249.8480,W,0.87,70.62,301115,,,A*48
$GPRMC,070459.157,A,4803.0289,N,12249.8456,W,0.53,325.68,301115,,,A*74
$GPRMC,070641.806,A,4803.0632,N,12249.8591,W,0.28,69.53,301115,,,A*43
$GPRMC,070832.454,A,4803.0755,N,12249.8668,W,5.08,345.06,301115,,,A*7D
$GPRMC,071038.090,A,4803.0605,N,12249.8666,W,0.16,332.04,301115,,,A*70
$GPRMC,071245.000,A,4802.9967,N,12249.8366,W,0.89,322.55,301115,,,A*74
$GPRMC,071600.000,A,4802.9155,N,12249.8010,W,0.54,284.31,301115,,,A*75
$GPRMC,071622.166,A,4803.0757,N,12249.8679,W,1.34,334.67,301115,,,A*7F
$GPRMC,071820.678,A,4803.0668,N,12249.8698,W,1.44,140.42,301115,,,A*78
$GPRMC,072042.000,A,4803.0265,N,12249.8472,W,0.51,167.79,301115,,,A*79
$GPRMC,072228.000,A,4803.0433,N,12249.8458,W,0.57,148.37,301115,,,A*7B
$GPRMC,072440.000,A,4803.0397,N,12249.8364,W,0.43,157.69,301115,,,A*72
$GPRMC,072615.000,A,4803.0775,N,12249.8573,W,0.54,73.03,301115,,,A*45
$GPRMC,072811.000,A,4803.0096,N,12249.8484,W,0.46,352.30,301115,,,A*7F
$GPRMC,073010.000,A,4803.0564,N,12249.8707,W,0.79,315.90,301115,,,A*72
$GPRMC,073206.000,A,4803.0467,N,12249.8668,W,0.32,0.00,301115,,,A*7C
$GPRMC,073403.792,A,4803.0794,N,12249.8769,W,0.97,337.90,301115,,,A*7D
$GPRMC,073619.417,A,4803.0634,N,12249.8742,W,0.72,68.36,301115,,,A*46
$GPRMC,073800.000,A,4803.0772,N,12249.8705,W,1.16,166.82,301115,,,A*71
$GPRMC,073956.677,A,4803.0460,N,12249.8710,W,0.85,225.82,301115,,,A*7E
$GPRMC,074150.310,A,4803.0723,N,12249.8793,W,0.38,134.60,301115,,,A*75
$GPRMC,074350.940,A,4803.0849,N,12249.8688,W,0.52,192.81,301115,,,A*7F
$GPRMC,074547.000,A,4803.0601,N,12249.8629,W,1.73,53.39,301115,,,A*46
$GPRMC,074749.211,A,4803.0694,N,12249.8757,W,0.67,4.11,301115,,,A*70
$GPRMC,074938.847,A,4803.0408,N,12249.8636,W,1.62,2.30,301115,,,A*71
$GPRMC,075141.000,A,4803.0763,N,12249.8742,W,0.19,227.20,301115,,,A*78
$GPRMC,075340.081,A,4803.0741,N,12249.8693,W,0.78,210.42,301115,,,A*78
$GPRMC,075555.683,A,4803.0639,N,12249.8743,W,0.15,107.93,301115,,,A*7E
$GPRMC,075732.314,A,4803.0638,N,12249.8714,W,2.89,209.73,301115,,,A*71
$GPRMC,075925.916,A,4803.0551,N,12249.8809,W,0.85,160.01,301115,,,A*79
$GPRMC,080121.558,A,4803.0665,N,12249.8687,W,1.26,44.08,301115,,,A*43
$GPRMC,080324.181,A,4803.0672,N,12249.8646,W,1.21,63.68,301115,,,A*4B
$GPRMC,080520.792,A,4803.0562,N,12249.8735,W,1.54,61.95,301115,,,A*48
$GPRMC,080714.400,A,4803.0399,N,12249.8941,W,1.35,38.28,301115,,,A*47
$GPRMC,080920.035,A,4803.0674,N,12249.8613,W,0.70,58.35,301115,,,A*48
$GPRMC,081114.634,A,4803.0639,N,12249.8642,W,0.99,74.36,301115,,,A*46
$GPRMC,081316.265,A,4803.0686,N,12249.8631,W,0.46,170.37,301115,,,A*70
$GPRMC,081510.884,A,4803.0865,N,12249.8597,W,0.13,319.41,301115,,,A*75
$GPRMC,081708.494,A,4803.0645,N,12249.8732,W,0.52,291.01,301115,,,A*72
$GPRMC,081902.107,A,4803.0634,N,12249.8624,W,1.54,290.63,301115,,,A*7B
$GPRMC,082104.691,A,4803.0719,N,12249.8698,W,0.97,27.42,301115,,,A*44
$GPRMC,082301.319,A,4803.1040,N,12249.8449,W,3.38,13.94,301115,,,A*48
$GPRMC,082456.907,A,4803.0659,N,12249.8711,W,6.09,207.22,301115,,,A*74
$GPRMC,082700.522,A,4803.0649,N,12249.8652,W,2.51,190.42,301115,,,A*7A
$GPRMC,082848.122,A,4803.0560,N,12249.8754,W,0.35,0.00,301115,,,A*7C
$GPRMC,083050.738,A,4803.0735,N,12249.8638,W,5.83,199.77,301115,,,A*71
$GPRMC,083250.352,A,4803.0518,N,12249.8701,W,5.96,8.46,301115,,,A*72
$GPRMC,083444.953,A,4803.0532,N,12249.8729,W,4.06,202.99,301115,,,A*7A
$GPRMC,083644.544,A,4803.0627,N,12249.8734,W,5.91,192.97,301115,,,A*72
$GPRMC,083846.135,A,4803.0564,N,12249.8776,W,1.07,243.45,301115,,,A*75
$GPRMC,084039.739,A,4803.0553,N,12249.8713,W,0.49,230.19,301115,,,A*79
$GPRMC,084238.354,A,4803.0578,N,12249.8704,W,0.14,313.16,301115,,,A*7D
$GPRMC,084432.971,A,4803.0690,N,12249.8671,W,0.58,122.37,301115,,,A*71
$GPRMC,084629.539,A,4803.0297,N,12249.8801,W,0.67,148.60,301115,,,A*71
$GPRMC,084835.198,A,4803.0908,N,12249.9165,W,1.50,283.11,301115,,,A*7D
$GPRMC,085025.836,A,4803.0751,N,12249.8514,W,1.39,51.72,301115,,,A*4E
$GPRMC,085226.419,A,4803.0679,N,12249.8783,W,0.47,209.44,301115,,,A*7B
$GPRMC,085421.022,A,4803.0637,N,12249.8722,W,0.86,264.71,301115,,,A*77
$GPRMC,085621.620,A,4803.0732,N,12249.8699,W,1.02,128.02,301115,,,A*76
$GPRMC,085829.203,A,4803.0925,N,12249.8644,W,0.21,0.00,301115,,,A*74
$GPRMC,090014.796,A,4803.0407,N,12249.8728,W,0.18,219.71,301115,,,A*7F
$GPRMC,090215.385,A,4803.0625,N,12249.8665,W,0.27,251.65,301115,,,A*75
$GPRMC,090408.964,A,4803.0569,N,12249.8609,W,0.58,270.86,301115,,,A*7D
$GPRMC,090611.000,A,4803.0662,N,12249.8751,W,0.77,232.29,301115,,,A*76
$GPRMC,090758.116,A,4803.0674,N,12249.8648,W,0.58,0.00,301115,,,A*77
$GPRMC,091002.695,A,4803.0611,N,12249.8574,W,1.13,163.27,301115,,,A*72
$GPRMC,091204.283,A,4803.0609,N,12249.8649,W,0.39,172.53,301115,,,A*7B
$GPRMC,091356.891,A,4803.0665,N,12249.8657,W,0.48,173.27,301115,,,A*75
$GPRMC,091550.203,A,4803.0124,N,12249.8740,W,0.55,0.00,301115,,,A*7D
$GPRMC,091757.119,A,4803.0719,N,12249.8736,W,0.91,334.67,301115,,,A*74
$GPRMC,091950.711,A,4803.0715,N,12249.8600,W,1.18,148.01,301115,,,A*72
$GPRMC,092150.304,A,4803.0621,N,12249.8641,W,0.42,107.06,301115,,,A*78
$GPRMC,092344.898,A,4803.0385,N,12249.8071,W,4.47,128.82,301115,,,A*7F
$GPRMC,092541.171,A,4802.9960,N,12249.8606,W,0.31,0.00,301115,,,A*79
$GPRMC,092741.755,A,4803.0037,N,12249.8536,W,1.09,324.49,301115,,,A*7A
$GPRMC,092937.325,A,4803.0069,N,12249.8491,W,0.34,0.00,301115,,,A*76
$GPRMC,093139.215,A,4803.0792,N,12249.8854,W,0.23,0.00,301115,,,A*73
$GPRMC,093332.790,A,4803.0705,N,12249.8765,W,0.40,62.66,301115,,,A*40
$GPRMC,093546.359,A,4803.0636,N,12249.8675,W,0.12,0.00,301115,,,A*76
$GPRMC,093823.000,A,4803.0744,N,12249.8699,W,1.72,320.09,301115,,,A*7E
$GPRMC,093935.000,A,4803.0753,N,12249.8741,W,0.06,299.03,301115,,,A*71
$GPRMC,094132.060,A,4803.0838,N,12249.8764,W,0.26,82.20,301115,,,A*41
$GPRMC,094349.000,A,4803.0571,N,12249.8523,W,1.56,325.82,301115,,,A*78
$GPRMC,094521.187,A,4803.0574,N,12249.8448,W,0.39,0.00,301115,,,A*71
$GPRMC,094722.000,A,4803.0685,N,12249.8726,W,0.62,303.79,301115,,,A*78
$GPRMC,094916.000,A,4803.0736,N,12249.8769,W,0.37,37.01,301115,,,A*48
$GPRMC,095210.000,A,4803.0566,N,12249.8568,W,1.37,320.74,301115,,,A*76
$GPRMC,095308.468,A,4803.0718,N,12249.8738,W,8.97,139.96,301115,,,A*7D
$GPRMC,095534.037,A,4803.0678,N,12249.8613,W,0.13,141.30,301115,,,A*72
$GPRMC,095703.616,A,4803.0778,N,12249.8820,W,2.47,134.73,301115,,,A*78
$GPRMC,095906.000,A,4803.0664,N,12249.8622,W,0.48,3.73,301115,,,A*7A
$GPRMC,100112.000,A,4803.0965,N,12249.9020,W,0.26,64.33,301115,,,A*4C
$GPRMC,100300.000,A,4803.0869,N,12249.8814,W,3.26,329.04,301115,,,A*73
$GPRMC,100458.000,A,4803.0652,N,12249.8563,W,0.44,183.68,301115,,,A*7D
$GPRMC,100720.000,A,4803.0643,N,12249.8571,W,0.30,325.94,301115,,,A*7C
$GPRMC,100853.133,A,4803.0598,N,12249.8671,W,0.76,35.66,301115,,,A*4D
$GPRMC,101055.000,A,4803.0686,N,12249.8640,W,0.27,0.00,301115,,,A*7F
$GPRMC,101245.351,A,4803.0669,N,12249.8474,W,0.90,356.33,301115,,,A*73
$GPRMC,101441.942,A,4803.0655,N,12249.8669,W,0.75,270.72,301115,,,A*73
$GPRMC,101645.558,A,4803.0764,N,12249.8646,W,1.48,178.66,301115,,,A*7D
$GPRMC,101910.000,A,4803.0500,N,12249.8536,W,0.13,327.97,301115,,,A*77
$GPRMC,102035.764,A,4803.0625,N,12249.8701,W,1.07,52.94,301115,,,A*4B
$GPRMC,102233.352,A,4803.0565,N,12249.8692,W,0.43,103.08,301115,,,A*73
$GPRMC,102512.000,A,4803.0517,N,12249.8867,W,0.62,323.74,301115,,,A*7A
$GPRMC,102629.517,A,4803.0611,N,12249.8684,W,1.21,331.40,301115,,,A*76
$GPRMC,102827.088,A,4803.0643,N,12249.8600,W,1.94,6.06,301115,,,A*75
$GPRMC,103026.663,A,4803.0622,N,12249.8695,W,0.54,295.39,301115,,,A*7C
$GPRMC,103231.000,A,4803.0586,N,12249.8749,W,0.44,225.02,301115,,,A*74
$GPRMC,103422.000,A,4803.0860,N,12249.8601,W,2.89,334.66,301115,,,A*78
$GPRMC,103617.321,A,4803.0823,N,12249.8888,W,3.02,344.07,301115,,,A*76
$GPRMC,103820.931,A,4803.0611,N,12249.8729,W,0.10,0.00,301115,,,A*78
$GPRMC,104023.000,A,4803.0748,N,12249.8560,W,0.29,196.25,301115,,,A*7E
$GPRMC,104209.044,A,4803.0773,N,12249.8584,W,0.16,242.97,301115,,,A*79
$GPRMC,104410.000,A,4803.0741,N,12249.8564,W,1.58,12.25,301115,,,A*4D
$GPRMC,104605.000,A,4803.0835,N,12249.8528,W,0.66,117.56,301115,,,A*73
$GPRMC,104803.745,A,4803.0785,N,12249.8572,W,0.08,113.23,301115,,,A*78
$GPRMC,105012.000,A,4803.0738,N,12249.8535,W,2.03,11.92,301115,,,A*42
$GPRMC,105223.000,A,4803.0541,N,12249.8669,W,0.17,323.67,301115,,,A*7B
$GPRMC,105415.000,A,4803.0227,N,12249.8665,W,0.33,252.63,301115,,,A*76
$GPRMC,105606.074,A,4803.0534,N,12249.8617,W,0.19,101.86,301115,,,A*73
$GPRMC,105810.689,A,4803.0475,N,12249.8567,W,0.18,15.69,301115,,,A*4A
$GPRMC,110035.000,A,4803.0373,N,12249.8671,W,0.26,11.13,301115,,,A*47
$GPRMC,110146.956,A,4803.0639,N,12249.8574,W,1.30,26.12,301115,,,A*46
$GPRMC,110401.561,A,4803.0719,N,12249.8669,W,0.08,129.86,301115,,,A*7D
$GPRMC,110545.155,A,4803.0755,N,12249.8625,W,0.51,51.41,301115,,,A*46
$GPRMC,110801.769,A,4803.0958,N,12249.8709,W,0.37,17.36,301115,,,A*4C
$GPRMC,111018.392,A,4803.0538,N,12249.8652,W,0.36,39.23,301115,,,A*41
$GPRMC,111133.012,A,4803.0570,N,12249.8632,W,0.24,0.00,301115,,,A*70
$GPRMC,111332.629,A,4803.0759,N,12249.8695,W,0.49,54.75,301115,,,A*41
$GPRMC,111555.243,A,4803.0623,N,12249.8787,W,1.85,55.38,301115,,,A*49
$GPRMC,111722.851,A,4803.0641,N,12249.8809,W,0.42,0.00,301115,,,A*7E
$GPRMC,111925.460,A,4803.0676,N,12249.8734,W,0.28,129.55,301115,,,A*7A
$GPRMC,112121.090,A,4803.0597,N,12249.8787,W,1.37,45.62,301115,,,A*4A
$GPRMC,112319.670,A,4803.0710,N,12249.8683,W,2.72,42.47,301115,,,A*41
$GPRMC,112517.284,A,4803.0635,N,12249.8774,W,1.69,224.85,301115,,,A*7C
$GPRMC,112714.880,A,4803.0541,N,12249.8802,W,0.45,2.69,301115,,,A*76
$GPRMC,112909.153,A,4803.1240,N,12249.7851,W,0.10,0.00,301115,,,A*70
$GPRMC,113117.000,A,4803.0625,N,12249.8718,W,0.24,0.00,301115,,,A*7D
$GPRMC,113300.654,A,4803.0737,N,12249.8630,W,0.75,351.75,301115,,,A*76
$GPRMC,113501.319,A,4803.1008,N,12249.8088,W,6.18,252.24,301115,,,A*79
$GPRMC,113654.821,A,4803.0623,N,12249.8693,W,1.68,198.74,301115,,,A*78
$GPRMC,113851.456,A,4803.0698,N,12249.8591,W,0.49,0.00,301115,,,A*7F
$GPRMC,114051.069,A,4803.0663,N,12249.8725,W,0.68,71.75,301115,,,A*46
$GPRMC,114313.645,A,4803.0665,N,12249.8724,W,1.06,178.84,301115,,,A*73
$GPRMC,114457.246,A,4803.0641,N,12249.8614,W,0.41,0.00,301115,,,A*77
$GPRMC,114652.000,A,4803.0687,N,12249.8644,W,0.58,74.20,301115,,,A*46
$GPRMC,114850.453,A,4803.0681,N,12249.8666,W,0.21,52.05,301115,,,A*43
$GPRMC,115120.000,A,4803.0770,N,12249.8597,W,0.28,348.79,301115,,,A*76
$GPRMC,115236.651,A,4803.0702,N,12249.8703,W,2.84,226.44,301115,,,A*79
$GPRMC,115435.298,A,4803.0693,N,12249.8648,W,0.23,117.14,301115,,,A*71
$GPRMC,115629.911,A,4803.0674,N,12249.8695,W,0.30,0.00,301115,,,A*7D
$GPRMC,115834.552,A,4803.0656,N,12249.8744,W,1.63,56.56,301115,,,A*4E
$GPRMC,120047.157,A,4803.0645,N,12249.8675,W,0.05,219.14,301115,,,A*7A
$GPRMC,120222.779,A,4803.0666,N,12249.8543,W,0.39,0.00,301115,,,A*76
$GPRMC,120432.407,A,4803.0771,N,12249.8617,W,0.92,354.74,301115,,,A*7E
$GPRMC,120627.026,A,4803.0719,N,12249.8740,W,1.37,191.30,301115,,,A*77
$GPRMC,120827.643,A,4803.0773,N,12249.8548,W,0.50,117.84,301115,,,A*7B
$GPRMC,121019.279,A,4803.0613,N,12249.8664,W,0.48,0.00,301115,,,A*7A
$GPRMC,121215.861,A,4803.0593,N,12249.8621,W,0.95,355.32,301115,,,A*7F
$GPRMC,121419.466,A,4803.0702,N,12249.8584,W,0.04,102.36,301115,,,A*74
$GPRMC,121614.090,A,4803.0658,N,12249.8621,W,0.43,197.58,301115,,,A*73
$GPRMC,121839.683,A,4803.0454,N,12249.8886,W,3.85,210.23,301115,,,A*72
$GPRMC,122019.299,A,4803.0734,N,12249.8708,W,0.10,318.98,301115,,,A*7E
$GPRMC,122158.905,A,4803.0672,N,12249.8562,W,0.54,0.00,301115,,,A*72
$GPRMC,122402.518,A,4803.0687,N,12249.8728,W,0.62,304.09,301115,,,A*75
$GPRMC,122603.145,A,4803.0787,N,12249.8737,W,0.54,284.39,301115,,,A*7A
$GPRMC,122804.768,A,4803.0480,N,12249.8682,W,2.55,9.45,301115,,,A*7E
$GPRMC,122950.371,A,4803.0845,N,12249.8748,W,0.23,0.00,301115,,,A*7B
$GPRMC,123146.974,A,4803.0636,N,12249.8580,W,0.23,0.00,301115,,,A*76
$GPRMC,123345.576,A,4803.0738,N,12249.8698,W,0.09,0.00,301115,,,A*74
$GPRMC,123551.195,A,4803.0722,N,12249.8729,W,0.52,257.12,301115,,,A*73
$GPRMC,123750.813,A,4803.0636,N,12249.8661,W,0.39,266.63,301115,,,A*77
$GPRMC,123953.000,A,4803.0599,N,12249.8655,W,0.77,3.83,301115,,,A*74
$GPRMC,124200.056,A,4803.0544,N,12249.8613,W,1.80,164.94,301115,,,A*70
$GPRMC,124333.680,A,4803.0745,N,12249.8713,W,0.46,0.00,301115,,,A*7B
$GPRMC,124539.307,A,4803.0562,N,12249.8626,W,0.67,243.17,301115,,,A*7D
$GPRMC,124745.928,A,4803.0660,N,12249.8634,W,0.71,319.16,301115,,,A*79
$GPRMC,124933.544,A,4803.0593,N,12249.8674,W,0.74,18.68,301115,,,A*45
$GPRMC,125153.153,A,4803.0508,N,12249.8740,W,1.15,101.68,301115,,,A*73
$GPRMC,125424.000,A,4803.0677,N,12249.8579,W,0.53,43.96,301115,,,A*47
$GPRMC,125526.435,A,4803.0604,N,12249.8545,W,1.90,319.46,301115,,,A*72
$GPRMC,125730.000,A,4803.0637,N,12249.8480,W,0.06,20.23,301115,,,A*49
$GPRMC,125935.000,A,4803.0671,N,12249.8620,W,0.40,224.67,301115,,,A*7C
$GPRMC,130242.000,A,4803.0682,N,12249.8627,W,0.40,176.41,301115,,,A*78
$GPRMC,130333.000,A,4803.0782,N,12249.8776,W,0.11,1.49,301115,,,A*76
$GPRMC,130513.718,A,4803.0543,N,12249.8546,W,1.53,129.30,301115,,,A*70
$GPRMC,130712.361,A,4803.0338,N,12249.8525,W,0.40,137.10,301115,,,A*78
$GPRMC,130914.000,A,4803.0743,N,12249.8855,W,2.44,290.60,301115,,,A*79
$GPRMC,131102.653,A,4803.0724,N,12249.8745,W,0.66,342.44,301115,,,A*72
$GPRMC,131306.304,A,4803.0634,N,12249.8654,W,0.87,29.48,301115,,,A*4F
$GPRMC,131543.000,A,4803.0740,N,12249.8204,W,2.26,90.26,301115,,,A*4F
$GPRMC,131711.604,A,4803.0509,N,12249.8504,W,0.21,123.02,301115,,,A*7A
$GPRMC,131858.239,A,4803.0772,N,12249.8682,W,0.68,41.35,301115,,,A*4D
$GPRMC,132110.880,A,4803.0617,N,12249.8593,W,0.15,4.05,301115,,,A*7A
$GPRMC,132256.537,A,4803.0544,N,12249.8740,W,0.68,312.95,301115,,,A*74
$GPRMC,132455.000,A,4803.0392,N,12249.8269,W,2.64,129.28,301115,,,A*71
$GPRMC,132650.849,A,4803.0466,N,12249.8468,W,1.83,333.93,301115,,,A*7B
$GPRMC,132849.000,A,4803.0518,N,12249.8372,W,3.71,131.05,301115,,,A*7C
$GPRMC,133052.000,A,4803.0515,N,12249.8432,W,0.66,329.82,301115,,,A*70
$GPRMC,133302.000,A,4803.0584,N,12249.8519,W,0.47,128.79,301115,,,A*72
$GPRMC,133455.000,A,4803.0598,N,12249.8415,W,0.90,322.79,301115,,,A*75
$GPRMC,133628.134,A,4803.0672,N,12249.8667,W,1.52,336.05,301115,,,A*7A
$GPRMC,133838.778,A,4803.0653,N,12249.8659,W,0.42,118.15,301115,,,A*7A
$GPRMC,134031.377,A,4803.0609,N,12249.8932,W,0.64,176.50,301115,,,A*77
$GPRMC,134235.000,A,4803.0743,N,12249.8484,W,0.19,141.84,301115,,,A*7A
$GPRMC,134426.713,A,4803.0734,N,12249.8597,W,0.22,105.85,301115,,,A*71
$GPRMC,134626.356,A,4803.0696,N,12249.8501,W,0.36,128.74,301115,,,A*74
$GPRMC,134828.000,A,4803.0621,N,12249.8590,W,0.62,267.70,301115,,,A*7D
$GPRMC,135012.520,A,4803.1135,N,12249.8922,W,0.26,0.00,301115,,,A*78
$GPRMC,135216.267,A,4803.0708,N,12249.8711,W,0.51,205.20,301115,,,A*78
$GPRMC,135414.936,A,4803.0667,N,12249.8637,W,1.30,31.08,301115,,,A*47
$GPRMC,135614.584,A,4803.0621,N,12249.8601,W,0.20,183.68,301115,,,A*79
$GPRMC,135809.236,A,4803.0626,N,12249.8571,W,3.54,188.94,301115,,,A*7E
$GPRMC,140007.878,A,4803.0700,N,12249.8612,W,0.64,196.37,301115,,,A*7F
$GPRMC,140208.536,A,4803.0649,N,12249.8658,W,0.52,272.70,301115,,,A*78
$GPRMC,140403.170,A,4803.0620,N,12249.8575,W,1.79,164.37,301115,,,A*7F
$GPRMC,140602.811,A,4803.0623,N,12249.8586,W,0.30,285.49,301115,,,A*74
$GPRMC,140806.000,A,4803.0688,N,12249.8628,W,0.19,192.84,301115,,,A*7F
$GPRMC,140957.119,A,4803.0685,N,12249.8622,W,0.23,213.81,301115,,,A*72
$GPRMC,141156.777,A,4803.0622,N,12249.8604,W,0.30,216.73,301115,,,A*77
$GPRMC,141409.439,A,4803.0696,N,12249.8633,W,0.62,194.89,301115,,,A*71
$GPRMC,141551.064,A,4803.0741,N,12249.8613,W,0.55,132.82,301115,,,A*7B
$GPRMC,141753.000,A,4803.0708,N,12249.8576,W,0.86,330.43,301115,,,A*77
$GPRMC,142131.381,A,4803.0608,N,12249.8601,W,0.68,155.45,301115,,,A*79
$GPRMC,142137.166,A,4803.0775,N,12249.8530,W,1.82,302.14,301115,,,A*7F
$GPRMC,142404.000,A,4803.0737,N,12249.8691,W,2.68,342.09,301115,,,A*7A
$GPRMC,142539.384,A,4803.0733,N,12249.8657,W,0.42,71.39,301115,,,A*4E
$GPRMC,142745.059,A,4803.0680,N,12249.8609,W,0.13,0.00,301115,,,A*7E
$GPRMC,142938.745,A,4803.0656,N,12249.8592,W,0.44,67.02,301115,,,A*4B
$GPRMC,143145.423,A,4803.0767,N,12249.8446,W,1.59,172.17,301115,,,A*7C
$GPRMC,143338.080,A,4803.0565,N,12249.8774,W,0.66,353.12,301115,,,A*72
$GPRMC,143553.732,A,4803.0605,N,12249.8605,W,0.64,65.09,301115,,,A*4B
$GPRMC,143736.000,A,4803.0728,N,12249.8696,W,0.26,0.00,301115,,,A*74
$GPRMC,143946.083,A,4803.0698,N,12249.8647,W,0.34,221.33,301115,,,A*72
$GPRMC,144406.767,A,4803.0687,N,12249.8629,W,1.45,41.30,301115,,,A*47
$GPRMC,144426.915,A,4803.0695,N,12249.8617,W,0.32,0.00,301115,,,A*77
$GPRMC,144614.474,A,4803.0666,N,12249.8635,W,1.71,197.69,301115,,,A*74
$GPRMC,144816.151,A,4803.0684,N,12249.8587,W,0.25,0.00,301115,,,A*7C
$GPRMC,145015.818,A,4803.0636,N,12249.8570,W,0.13,0.00,301115,,,A*76
$GPRMC,145213.490,A,4803.0815,N,12249.8583,W,1.16,167.18,301115,,,A*70
$GPRMC,145419.152,A,4803.0659,N,12249.8671,W,1.23,140.79,301115,,,A*7B
$GPRMC,145630.813,A,4803.0819,N,12249.8480,W,0.08,0.00,301115,,,A*7B
$GPRMC,145811.481,A,4803.0670,N,12249.8658,W,0.69,61.40,301115,,,A*43
$GPRMC,150003.125,A,4803.0720,N,12249.8671,W,0.30,0.00,301115,,,A*77
$GPRMC,150210.000,A,4803.0579,N,12249.8578,W,0.92,182.42,301115,,,A*70
$GPRMC,150402.462,A,4803.0721,N,12249.8693,W,0.11,116.58,301115,,,A*71
$GPRMC,150600.000,A,4803.0681,N,12249.8705,W,0.13,0.00,301115,,,A*7D
$GPRMC,150745.788,A,4803.0704,N,12249.8651,W,1.49,104.79,301115,,,A*73
$GPRMC,151004.466,A,4803.0684,N,12249.8717,W,1.25,152.72,301115,,,A*7B
$GPRMC,151156.129,A,4803.0688,N,12249.8639,W,0.28,294.50,301115,,,A*77
$GPRMC,151344.806,A,4803.0670,N,12249.8605,W,0.87,313.59,301115,,,A*78
$GPRMC,151545.488,A,4803.0660,N,12249.8669,W,0.67,230.09,301115,,,A*75
$GPRMC,151743.176,A,4803.0569,N,12249.8671,W,0.63,99.01,301115,,,A*4B
$GPRMC,151949.877,A,4803.0647,N,12249.8581,W,1.56,98.70,301115,,,A*44
$GPRMC,152138.551,A,4803.0684,N,12249.8562,W,0.24,0.00,301115,,,A*70
$GPRMC,152349.221,A,4803.0692,N,12249.8440,W,0.21,0.00,301115,,,A*77
$GPRMC,152537.885,A,4803.0681,N,12249.8708,W,0.90,147.26,301115,,,A*7D
$GPRMC,152728.547,A,4803.0721,N,12249.8669,W,0.90,176.19,301115,,,A*71
$GPRMC,152928.229,A,4803.0671,N,12249.8632,W,0.48,273.38,301115,,,A*7A
$GPRMC,153133.892,A,4803.0701,N,12249.8589,W,0.53,0.00,301115,,,A*71
$GPRMC,153322.569,A,4803.0758,N,12249.8697,W,0.41,22.98,301115,,,A*48
$GPRMC,153521.238,A,4803.0758,N,12249.8725,W,0.71,133.03,301115,,,A*76
$GPRMC,153719.887,A,4803.0834,N,12249.8781,W,2.22,308.20,301115,,,A*75
$GPRMC,153925.565,A,4803.0712,N,12249.8658,W,1.30,157.98,301115,,,A*70
$GPRMC,154116.258,A,4803.0679,N,12249.8620,W,0.32,0.00,301115,,,A*74
$GPRMC,154326.947,A,4803.0705,N,12249.8639,W,0.26,0.00,301115,,,A*77
$GPRMC,154517.654,A,4803.0569,N,12249.8559,W,1.43,302.47,301115,,,A*73
$GPRMC,154704.340,A,4803.0607,N,12249.8510,W,0.77,297.21,301115,,,A*7E
$GPRMC,154908.041,A,4803.0711,N,12249.8735,W,0.21,90.60,301115,,,A*4E
$GPRMC,155054.730,A,4803.0634,N,12249.8542,W,0.81,129.39,301115,,,A*7F
$GPRMC,155309.426,A,4803.0735,N,12249.8681,W,0.16,0.42,301115,,,A*74
$GPRMC,155500.111,A,4803.0751,N,12249.8744,W,2.13,155.17,301115,,,A*76
$GPRMC,155706.772,A,4803.0717,N,12249.8646,W,0.35,157.49,301115,,,A*7F
$GPRMC,155853.000,A,4803.0702,N,12249.8680,W,0.98,149.23,301115,,,A*78
$GPRMC,160126.000,A,4803.0701,N,12249.8690,W,0.35,83.78,301115,,,A*49
$GPRMC,160305.850,A,4803.0737,N,12249.8759,W,0.12,0.00,301115,,,A*77
$GPRMC,160454.000,A,4803.0877,N,12249.8856,W,0.04,125.53,301115,,,A*75
$GPRMC,160657.249,A,4803.0602,N,12249.8556,W,0.29,0.00,301115,,,A*75
$GPRMC,160908.959,A,4803.0699,N,12249.8675,W,0.59,157.59,301115,,,A*72
$GPRMC,161059.663,A,4803.0587,N,12249.8551,W,0.63,232.11,301115,,,A*74
$GPRMC,161303.362,A,4803.0759,N,12249.8767,W,0.12,0.00,301115,,,A*7F
$GPRMC,161436.000,A,4803.0565,N,12249.8518,W,1.06,151.94,301115,,,A*72
$GPRMC,161632.759,A,4803.0684,N,12249.8648,W,1.03,119.64,301115,,,A*73
$GPRMC,161830.000,A,4803.0769,N,12249.8881,W,0.73,126.09,301115,,,A*7C
$GPRMC,162041.124,A,4803.0688,N,12249.8669,W,0.50,0.00,301115,,,A*7D
$GPRMC,162247.000,A,4803.0683,N,12249.8696,W,1.16,106.43,301115,,,A*76
$GPRMC,162511.000,A,4803.0790,N,12249.8801,W,0.37,0.00,301115,,,A*73
$GPRMC,162618.238,A,4803.0599,N,12249.8449,W,3.23,129.52,301115,,,A*70
$GPRMC,162807.973,A,4803.0855,N,12249.8958,W,0.71,72.10,301115,,,A*49
$GPRMC,163009.661,A,4803.0439,N,12249.8147,W,0.67,358.42,301115,,,A*79
$GPRMC,163213.354,A,4803.0852,N,12249.9038,W,0.54,248.82,301115,,,A*76
$GPRMC,163420.065,A,4803.0776,N,12249.8897,W,0.78,300.39,301115,,,A*77
$GPRMC,163612.758,A,4803.0653,N,12249.8342,W,0.46,327.64,301115,,,A*78
$GPRMC,163805.000,A,4803.0726,N,12249.8789,W,0.50,183.97,301115,,,A*7D
$GPRMC,164025.175,A,4803.0537,N,12249.8636,W,0.09,0.00,301115,,,A*7C
$GPRMC,164158.855,A,4803.0653,N,12249.8623,W,0.65,56.83,301115,,,A*4B
$GPRMC,164358.605,A,4803.0741,N,12249.8415,W,0.27,0.00,301115,,,A*79
$GPRMC,164604.261,A,4803.0595,N,12249.8785,W,3.22,239.64,301115,,,A*7E
$GPRMC,164752.951,A,4803.0669,N,12249.8679,W,0.70,266.22,301115,,,A*7A
$GPRMC,164950.659,A,4803.0607,N,12249.8722,W,0.82,247.61,301115,,,A*7F
$GPRMC,165154.347,A,4803.0411,N,12249.9019,W,0.07,65.33,301115,,,A*4B
$GPRMC,165345.037,A,4803.0639,N,12249.8665,W,0.70,23.78,301115,,,A*44
$GPRMC,165548.736,A,4803.0672,N,12249.8619,W,0.35,0.00,301115,,,A*72
$GPRMC,165745.444,A,4803.0675,N,12249.8632,W,0.91,279.06,301115,,,A*71
$GPRMC,165950.146,A,4803.0671,N,12249.8677,W,1.37,220.58,301115,,,A*73
$GPRMC,170132.849,A,4803.0613,N,12249.8764,W,0.97,340.41,301115,,,A*7E
$GPRMC,170341.555,A,4803.0646,N,12249.8718,W,0.14,0.00,301115,,,A*7A
$GPRMC,170540.249,A,4803.0669,N,12249.8702,W,0.86,354.91,301115,,,A*70
$GPRMC,170732.931,A,4803.0661,N,12249.8678,W,3.98,346.05,301115,,,A*75
$GPRMC,170935.619,A,4803.0698,N,12249.8676,W,1.09,158.52,301115,,,A*74
$GPRMC,171128.303,A,4803.0653,N,12249.8658,W,2.77,218.51,301115,,,A*7A
